City_ID,City,Lat,Lng,Max Temp,Humidity,Cloudiness,Wind Speed,Country,Date
0,hermanus,-34.4187,19.2345,15.34,92,0,2.84,ZA,1697595749
1,colonia,50.9333,6.95,7.75,79,0,1.54,DE,1697595792
2,peace river,56.2501,-117.286,5.17,93,20,2.57,CA,1697596174
3,ararangua,-28.9347,-49.4858,16.51,82,100,3.57,BR,1697596174
4,port-aux-francais,-49.35,70.2167,2.44,74,99,6.17,TF,1697595747
5,waitangi,-43.9535,-176.5597,12.12,74,27,4.02,NZ,1697595743
6,al burayqah,30.4062,19.5739,22.15,66,0,2.87,LY,1697596174
7,west island,-12.1568,96.8225,26.99,78,40,6.69,CC,1697595761
8,howard springs,-12.497,131.047,33.95,23,6,2.48,AU,1697595745
9,iqaluit,63.7506,-68.5145,-1.15,58,100,1.03,CA,1697595751
10,bethel,41.3712,-73.414,12.02,85,75,1.54,US,1697595745
11,bilibino,68.0546,166.4372,-15.02,94,100,1.79,RU,1697595750
12,saldanha,-33.0117,17.9442,12.03,95,3,6.16,ZA,1697595811
13,adamstown,-25.066,-130.1015,22.28,87,100,3.5,PN,1697595747
14,kodiak,57.79,-152.4072,8.73,81,100,4.63,US,1697595756
15,littlefield,33.9173,-102.3249,18.14,35,0,5.04,US,1697596175
16,iskateley,67.6803,53.1512,1.12,89,100,4.02,RU,1697595754
17,grytviken,-54.2811,-36.5092,1.67,88,98,5.68,GS,1697595745
18,touros,-5.1989,-35.4608,25.28,75,29,7.02,BR,1697595758
19,lerwick,60.1545,-1.1494,9.0,87,100,4.89,GB,1697595744
20,enewetak,11.3474,162.3373,28.43,77,52,7.07,MH,1697595773
21,el molino,10.6523,-72.924,23.61,94,82,1.55,CO,1697596176
22,karachi,24.9056,67.0822,25.9,65,20,4.12,PK,1697595941
23,puerto natales,-51.7236,-72.4875,5.02,92,65,1.81,CL,1697595744
24,shimoda,34.6667,138.95,23.2,61,0,3.02,JP,1697596176
25,albany,42.6001,-73.9662,11.36,83,19,1.93,US,1697595710
26,namibe,-15.1961,12.1522,17.26,81,49,0.79,AO,1697595784
27,dawei,14.0833,98.2,27.74,80,72,0.34,MM,1697596176
28,tobelo,1.7284,128.0095,29.04,71,42,2.13,ID,1697596176
29,termas de rio hondo,-27.4998,-64.8604,15.62,75,100,3.36,AR,1697595953
30,nishinoomote,30.7333,131.0,24.31,68,20,2.06,JP,1697596176
31,polyarnyy,69.1989,33.4478,2.11,72,100,5.27,RU,1697595759
32,vorgashor,67.5833,63.95,1.91,97,100,4.64,RU,1697595749
33,saint-paul,-21.0096,55.2707,23.06,92,100,0.45,RE,1697596177
34,chibougamau,49.9168,-74.3659,0.79,93,0,0.0,CA,1697595767
35,caleta de carquin,-11.0925,-77.6267,19.79,86,92,4.89,PE,1697596177
36,talladega,33.4359,-86.1058,12.16,93,0,0.0,US,1697596177
37,nurhak,37.9629,37.4202,11.42,56,62,0.95,TR,1697596177
38,shaowu,27.3409,117.4831,23.23,63,0,1.41,CN,1697596177
39,volksrust,-27.3654,29.8818,8.68,90,100,1.55,ZA,1697596177
40,lompoc,34.6391,-120.4579,20.43,86,100,9.39,US,1697595625
41,cabo san lucas,22.8909,-109.9124,30.17,58,0,2.06,MX,1697595629
42,plastun,44.7561,136.2939,11.72,45,91,0.89,RU,1697596178
43,palmer,42.1584,-72.3287,11.72,83,75,0.0,US,1697595813
44,cockburn town,21.4612,-71.1419,29.15,72,50,4.75,TC,1697595589
45,thompson,55.7435,-97.8558,5.09,87,20,1.54,CA,1697595759
46,bredasdorp,-34.5322,20.0403,14.01,95,0,1.36,ZA,1697595743
47,longyearbyen,78.2186,15.6401,-7.09,73,40,6.17,SJ,1697595613
48,tirebolu,41.0069,38.8139,13.24,78,100,1.71,TR,1697596178
49,yellowknife,62.456,-114.3525,1.9,100,100,4.12,CA,1697595677
50,papatowai,-46.5619,169.4708,15.49,56,77,7.87,NZ,1697595776
51,yongchuan,29.3514,105.8947,23.2,76,62,1.94,CN,1697596028
52,lubango,-14.9172,13.4925,12.92,67,60,0.0,AO,1697596179
53,banamba,13.55,-7.45,25.47,62,99,1.23,ML,1697596179
54,keflavik,64.0049,-22.5624,10.24,87,100,16.46,IS,1697595775
55,prado,-17.3411,-39.2208,22.88,83,18,3.54,BR,1697596179
56,axim,4.8699,-2.2405,24.47,90,63,1.92,GH,1697596179
57,saipan,15.1355,145.701,30.39,79,0,6.17,MP,1697595778
58,ilukste,55.9775,26.2966,6.93,87,100,4.59,LV,1697596179
59,edinburgh of the seven seas,-37.0676,-12.3116,12.64,75,100,7.0,SH,1697595746
60,constantia,44.1833,28.65,10.39,66,100,3.78,RO,1697595763
61,atafu village,-8.5421,-172.5159,28.54,72,100,2.39,TK,1697595770
62,tromso,69.6496,18.957,0.01,80,75,0.51,NO,1697596180
63,samfya,-11.3649,29.5565,19.37,79,100,3.61,ZM,1697596180
64,staryye ozinki,51.1786,49.6769,2.99,77,7,5.55,RU,1697596180
65,castillos,-34.1667,-53.8333,7.96,84,2,3.29,UY,1697595796
66,valdez,1.2492,-78.9831,26.35,83,96,3.63,EC,1697596180
67,nadym,65.5333,72.5167,4.15,92,100,5.43,RU,1697595801
68,chandler,33.3062,-111.8412,33.11,20,0,3.6,US,1697596028
69,deir ez-zor,35.3359,40.1408,21.27,43,0,2.09,SY,1697596180
70,flin flon,54.7682,-101.865,8.89,69,100,2.1,CA,1697595761
71,kayangel,8.0823,134.7173,28.02,74,44,0.42,PW,1697595813
72,sarkand,45.41,79.9186,12.45,22,0,2.17,KZ,1697596181
73,utrik,11.2278,169.8474,28.03,80,92,8.1,MH,1697595749
74,copiapo,-27.3667,-70.3333,12.83,64,94,0.23,CL,1697595919
75,quellon,-43.1167,-73.6167,8.48,95,97,3.38,CL,1697595768
76,invercargill,-46.4,168.35,14.45,73,100,8.05,NZ,1697595738
77,carnarvon,-24.8667,113.6333,28.57,32,0,7.69,AU,1697595778
78,paita,-5.0892,-81.1144,20.81,81,18,5.87,PE,1697596181
79,blackmans bay,-43.0167,147.3167,20.41,44,23,0.45,AU,1697595746
80,badger,64.8,-147.5333,1.93,83,100,0.0,US,1697595753
81,port elizabeth,-33.918,25.5701,15.17,92,0,0.51,ZA,1697595751
82,sittwe,20.15,92.9,25.88,77,9,2.72,MM,1697596181
83,vikulovo,56.8167,70.6107,8.5,76,22,4.75,RU,1697596181
84,hawaiian paradise park,19.5933,-154.9731,26.73,81,75,4.12,US,1697595751
85,pecs,46.0833,18.2333,3.98,75,0,1.54,HU,1697596182
86,arraial do cabo,-22.9661,-42.0278,23.92,88,0,3.09,BR,1697595581
87,sisimiut,66.9395,-53.6735,-8.0,81,38,4.6,GL,1697595800
88,itacorubi,-27.5832,-48.495,20.38,71,100,5.66,BR,1697596182
89,san salvador de jujuy,-24.1946,-65.2971,16.74,88,100,0.79,AR,1697596182
90,ilulissat,69.2167,-51.1,-8.99,67,75,3.6,GL,1697595758
91,tuy hoa,13.0833,109.3,26.84,82,100,2.1,VN,1697596182
92,vallegrande,-18.4897,-64.1069,14.77,86,47,1.4,BO,1697596182
93,tazovsky,67.4667,78.7,5.09,96,100,5.77,RU,1697595777
94,udachny,66.4167,112.4,-9.75,85,91,6.36,RU,1697595750
95,jinzhou,41.1078,121.1417,14.44,44,100,3.27,CN,1697596183
96,port mathurin,-19.6833,63.4167,23.69,81,21,4.28,MU,1697595753
97,ushuaia,-54.8,-68.3,11.81,91,40,8.23,AR,1697595753
98,kapuskasing,49.4169,-82.4331,4.05,100,0,1.54,CA,1697595765
99,weno,7.4515,151.8468,29.97,89,100,3.6,FM,1697595785
100,hadibu,12.65,54.0333,26.97,75,11,1.96,YE,1697595766
101,peschanokopskoye,46.1961,41.0775,8.62,70,100,1.08,RU,1697596183
102,nahiyat ash shinafiyah,31.5874,44.6602,23.99,36,0,1.23,IQ,1697596184
103,lihue,21.9789,-159.3672,28.58,70,100,2.57,US,1697595767
104,nueve de julio,-35.4444,-60.8831,9.98,54,0,3.92,AR,1697596184
105,olonkinbyen,70.9221,-8.7187,0.84,79,100,2.77,SJ,1697595752
106,port alfred,-33.5906,26.891,16.56,80,0,3.73,ZA,1697595761
107,aasiaat,68.7098,-52.8699,-16.01,86,67,2.26,GL,1697595777
108,prince rupert,54.3161,-130.3201,13.05,83,100,19.03,CA,1697595744
109,puerto ayora,-0.7393,-90.3518,24.19,94,22,2.24,EC,1697595748
110,haiku-pauwela,20.9219,-156.3051,30.01,57,20,2.06,US,1697596184
111,acarau,-2.8856,-40.12,26.02,77,100,6.09,BR,1697595782
112,tiksi,71.6872,128.8694,-14.94,100,100,1.59,RU,1697595756
113,bridgewater,44.3835,-64.5155,8.82,92,100,3.6,CA,1697596185
114,sosnovka,56.255,51.2842,3.53,69,97,6.71,RU,1697596185
115,newman,37.3138,-121.0208,25.13,61,0,0.45,US,1697595792
116,arno,60.1167,18.6333,5.99,86,100,5.74,SE,1697595808
117,erenhot,43.6475,111.9767,9.65,21,10,9.92,CN,1697596185
118,severo-yeniseyskiy,60.3725,93.0408,-3.01,98,88,1.34,RU,1697596185
119,new norfolk,-42.7826,147.0587,21.07,24,9,1.6,AU,1697595774
120,magadan,59.5667,150.8,-2.32,75,0,4.92,RU,1697595757
121,prince george,53.9166,-122.753,10.14,72,100,6.69,CA,1697596121
122,pacasmayo,-7.4006,-79.5714,19.93,84,28,6.86,PE,1697596186
123,bhamo,24.2667,97.2333,26.1,62,2,0.5,MM,1697596186
124,petropavlovsk-kamchatsky,53.0452,158.6483,6.36,88,75,4.0,RU,1697595762
125,dzhalagash,45.0833,64.6667,9.58,47,12,2.78,KZ,1697596186
126,geraldton,-28.7667,114.6,23.23,56,2,4.63,AU,1697595757
127,dapa,9.7594,126.0531,29.08,68,76,1.52,PH,1697596186
128,georgetown,5.4112,100.3354,28.96,81,20,2.06,MY,1697595610
129,fort-shevchenko,44.5086,50.263,11.43,57,72,1.83,KZ,1697596186
130,talnakh,69.4865,88.3972,-0.44,96,100,8.83,RU,1697595758
131,ust-nera,64.5667,143.2,-15.44,85,97,1.34,RU,1697595753
132,hasaki,35.7333,140.8333,22.22,58,82,3.99,JP,1697595810
133,nanao,37.05,136.9667,22.11,55,3,1.32,JP,1697596187
134,vernal,40.4555,-109.5287,15.62,45,0,2.57,US,1697596187
135,jamestown,42.097,-79.2353,9.77,100,100,2.57,US,1697595458
136,port augusta,-32.5,137.7667,26.95,15,0,0.63,AU,1697595796
137,dudinka,69.4058,86.1778,-0.18,98,100,2.68,RU,1697595777
138,susuman,62.7833,148.1667,-13.9,62,26,0.45,RU,1697595750
139,muisne,0.6,-80.0333,25.42,84,85,2.14,EC,1697596187
140,belmonte,-15.8631,-38.8828,22.8,80,64,2.1,BR,1697596187
141,gaillimh,53.2719,-9.0489,10.91,91,100,9.09,IE,1697596188
142,bamboo flat,11.7,92.7167,28.05,83,40,1.03,IN,1697595813
143,punta arenas,-53.15,-70.9167,9.06,71,75,7.72,CL,1697595748
144,port lavaca,28.615,-96.6261,18.32,72,0,2.06,US,1697596188
145,robertsport,6.7533,-11.3686,25.55,86,93,1.83,LR,1697596188
146,hasimara,26.747,89.3519,23.86,62,0,0.79,IN,1697596188
147,usogorsk,63.4106,48.6872,3.15,87,100,3.45,RU,1697596188
148,itaueira,-7.6033,-43.0256,25.43,30,1,2.18,BR,1697596188
149,taulaga,-11.0553,-171.0883,27.45,80,85,5.72,AS,1697596188
150,campbell river,50.0163,-125.2446,12.47,100,100,10.8,CA,1697596074
151,whitecourt,54.1502,-115.6855,10.58,62,40,3.09,CA,1697596189
152,zabol,32.25,67.25,10.53,26,8,2.85,AF,1697596189
153,posto fiscal rolim de moura,-13.0833,-62.2667,26.17,62,60,0.78,BR,1697596189
154,hernando,28.5419,-82.4582,16.46,87,0,0.0,US,1697596189
155,urangan,-25.3,152.9,21.53,65,41,8.57,AU,1697596189
156,college,64.8569,-147.8028,1.97,83,75,0.0,US,1697595746
157,sanctuary point,-35.1114,150.629,18.75,59,68,3.13,AU,1697596189
158,cabedelo,-6.9811,-34.8339,23.37,75,73,6.31,BR,1697596189
159,nantong,32.0303,120.8747,22.17,58,0,5.95,CN,1697596190
160,nova sintra,14.8667,-24.7167,25.26,71,0,2.57,CV,1697595772
161,qarazhal,48.0078,70.7903,7.36,38,95,3.75,KZ,1697596190
162,grand falls-windsor,48.9332,-55.6649,1.95,91,100,0.58,CA,1697596190
163,oyem,1.5995,11.5793,20.28,100,100,0.88,GA,1697596190
164,taksimo,56.3444,114.8794,2.06,57,91,1.34,RU,1697596190
165,kilindoni,-7.9139,39.6668,26.02,75,97,4.04,TZ,1697596190
166,kemin,42.7846,75.6892,13.84,37,100,2.36,KG,1697596190
167,trairi,-3.2778,-39.2689,25.84,79,93,5.8,BR,1697595782
168,baotou,40.6522,109.8222,11.09,23,81,1.6,CN,1697595763
169,seguin,29.5688,-97.9647,20.44,44,0,2.06,US,1697596191
170,afaahiti,-17.75,-149.2833,27.93,85,96,7.33,PF,1697596191
171,saudarkrokur,65.7461,-19.6394,5.8,92,99,4.7,IS,1697596191
172,pangody,65.85,74.4859,4.46,93,100,5.5,RU,1697595805
173,kattivakkam,13.2167,80.3167,27.82,81,56,3.46,IN,1697596191
174,nar'yan-mar,67.6713,53.087,1.17,89,100,4.02,RU,1697595760
175,hakui,36.8833,136.7833,23.47,52,3,0.3,JP,1697595769
176,saint-philippe,-21.3585,55.7679,22.77,77,100,2.32,RE,1697595744
177,luena,-11.7833,19.9167,18.1,94,0,5.66,AO,1697596191
178,mar del plata,-38.0023,-57.5575,9.41,84,0,2.06,AR,1697595779
179,paragominas,-2.9667,-47.4833,22.97,96,99,1.52,BR,1697596191
180,sur,22.5667,59.5289,27.61,58,0,4.45,OM,1697596192
181,la sarre,48.8002,-79.1996,4.63,84,0,1.94,CA,1697596095
182,balangir,20.7167,83.4833,24.35,74,4,1.18,IN,1697596192
183,whitehorse,60.7161,-135.0538,8.34,90,100,1.03,CA,1697595761
184,praia da vitoria,38.7333,-27.0667,22.14,88,40,7.65,PT,1697595797
185,avarua,-21.2078,-159.775,25.03,61,49,6.17,CK,1697595749
186,adiyaman,37.75,38.25,16.7,41,61,1.25,TR,1697595900
187,howrah,22.5892,88.3103,28.0,78,20,0.0,IN,1697596192
188,nemuro,43.3236,145.575,13.93,61,25,6.53,JP,1697595768
189,coroata,-4.13,-44.1242,24.52,84,74,1.41,BR,1697596192
190,ribeira grande,38.5167,-28.7,22.1,94,100,8.05,PT,1697595758
191,baicheng,45.6167,122.8167,14.11,24,91,4.76,CN,1697596193
192,minas de marcona,-15.2119,-75.1103,15.58,83,92,4.59,PE,1697595807
193,goure,13.9835,10.2704,29.48,20,32,3.46,NE,1697596193
194,kailua-kona,19.6406,-155.9956,29.43,71,0,2.06,US,1697596193
195,zhezqazghan,47.7833,67.7667,-0.68,74,0,5.0,KZ,1697596193
196,tamanrasset,22.785,5.5228,20.95,18,0,3.09,DZ,1697595757
197,st. john's,47.5649,-52.7093,4.82,91,100,0.45,CA,1697595538
198,alice springs,-23.7,133.8833,26.75,12,0,5.14,AU,1697595770
199,uyovu,-3.2833,31.5258,20.51,69,100,1.43,TZ,1697596193
200,veraval,20.9,70.3667,25.7,68,5,5.21,IN,1697596194
201,qaqortoq,60.7167,-46.0333,-1.11,51,7,2.26,GL,1697595754
202,stanley,54.868,-1.6985,9.87,89,40,4.63,GB,1697595747
203,moranbah,-22.0016,148.0466,28.22,38,10,8.7,AU,1697596194
204,amga,60.8953,131.9608,-3.34,52,100,3.13,RU,1697595766
205,mawu,29.5923,107.3139,22.77,61,38,1.39,CN,1697596194
206,gaigeturi,33.4644,126.3183,20.03,68,0,2.57,KR,1697596194
207,i-n-salah,27.1935,2.4607,25.83,18,2,2.32,DZ,1697596194
208,christchurch,-43.5333,172.6333,20.85,58,100,4.63,NZ,1697596171
209,pizarro,4.9533,-77.366,26.51,84,100,1.39,CO,1697596195
210,aksuat,48.7167,83.7,7.17,38,0,1.08,KZ,1697596195
211,pimentel,-6.8367,-79.9342,20.16,83,0,8.23,PE,1697595777
212,vilyuysk,63.7553,121.6247,-3.23,96,100,2.24,RU,1697595774
213,tarko-sale,64.9225,77.785,4.44,88,100,5.36,RU,1697596195
214,chonchi,-42.6128,-73.8092,8.4,96,61,1.42,CL,1697595794
215,lethem,3.3803,-59.7968,28.03,64,82,1.69,GY,1697595803
216,surgut,61.25,73.4167,8.84,93,0,5.0,RU,1697595952
217,yeraliyev,43.2,51.65,9.91,64,57,3.29,KZ,1697596195
218,winneba,5.3511,-0.6231,24.5,89,88,2.14,GH,1697596195
219,buala,-8.145,159.5921,29.2,71,41,3.88,SB,1697595794
220,cobija,-11.0267,-68.7692,26.08,64,6,1.3,BO,1697595772
221,downpatrick,54.3263,-5.7035,11.72,81,100,11.14,GB,1697596196
222,padang,-0.9492,100.3543,27.03,75,100,0.66,ID,1697595799
223,brisas de zicatela,15.8369,-97.0419,26.52,79,90,1.76,MX,1697595809
224,egilsstadir,65.2653,-14.3948,2.95,93,75,3.09,IS,1697596196
225,fortuna,40.5982,-124.1573,14.64,95,40,2.06,US,1697595785
226,lata,40.1629,-8.3327,17.82,91,82,3.74,PT,1697595768
227,tolanaro,-25.0319,46.9987,21.89,95,100,4.49,MG,1697595529
228,sao joao da barra,-21.6403,-41.0511,23.6,91,100,3.77,BR,1697596196
229,wailua homesteads,22.0669,-159.378,28.24,71,100,2.57,US,1697595756
230,komlo,46.1928,18.2649,3.69,52,4,1.42,HU,1697596197
231,laojunmiao,39.8333,97.7333,1.09,64,95,3.2,CN,1697595793
232,tura,25.5198,90.2201,23.4,77,0,0.38,IN,1697596197
233,coquimbo,-29.9533,-71.3436,13.85,88,100,2.06,CL,1697595764
234,wang nam yen,13.5033,102.1812,27.57,75,89,1.53,TH,1697596197
235,hilo,19.7297,-155.09,26.85,81,75,4.12,US,1697595797
236,calingasta,-31.3308,-69.4078,14.98,28,43,3.07,AR,1697596197
237,bodo,67.28,14.405,1.02,93,75,1.54,NO,1697596197
238,fort bragg,35.139,-79.006,15.75,85,100,0.0,US,1697595507
239,hithadhoo,-0.6,73.0833,27.25,75,12,5.78,MV,1697595777
240,ghanzi,-21.5667,21.7833,17.26,34,9,4.26,BW,1697596197
241,uturoa,-16.7333,-151.4333,25.9,83,78,6.06,PF,1697595751
242,kapa'a,22.0752,-159.319,28.99,70,100,2.57,US,1697595774
243,salinopolis,-0.6136,-47.3561,26.26,86,100,4.81,BR,1697595791
244,callao,-12.0667,-77.15,20.95,82,75,6.17,PE,1697595796
245,daru,-9.0763,143.2092,27.38,78,91,4.1,PG,1697596198
246,paimpol,48.7784,-3.0438,16.85,89,100,9.11,FR,1697596198
247,tabou,4.423,-7.3528,24.55,91,86,0.57,CI,1697596198
248,itoman,26.1247,127.6694,27.43,56,40,3.09,JP,1697595802
249,suntar,62.1444,117.6319,-1.59,93,99,1.79,RU,1697596198
250,kichmengskiy gorodok,59.9816,45.7854,1.08,97,100,5.81,RU,1697596198
251,naze,28.3667,129.4833,23.51,54,0,2.55,JP,1697595808
252,nova olinda do norte,-3.8881,-59.0942,26.11,72,43,1.66,BR,1697596199
253,arvin,35.2091,-118.8284,23.89,76,0,0.54,US,1697596199
254,macheng,31.1783,115.0319,24.99,44,8,0.7,CN,1697596199
255,luganville,-15.5333,167.1667,28.44,69,56,3.54,VU,1697595790
256,norilsk,69.3535,88.2027,-0.32,94,100,6.9,RU,1697595718
257,nogliki,51.8333,143.1667,9.08,84,91,3.13,RU,1697596199
258,general jose de san martin,-26.5374,-59.3416,21.75,85,100,4.62,AR,1697596199
259,nova vicosa,-17.8919,-39.3719,23.11,83,8,4.22,BR,1697596199
260,margaret river,-33.95,115.0667,18.17,61,23,4.98,AU,1697595770
261,lodja,-3.4833,23.4333,20.49,99,97,0.5,CD,1697596200
262,san andres,12.5847,-81.7006,29.01,84,20,5.14,CO,1697596200
263,eyl,7.9803,49.8164,26.58,82,7,1.72,SO,1697595775
264,nuuk,64.1835,-51.7216,-4.66,63,0,8.23,GL,1697595586
265,katiola,8.1333,-5.1,22.51,95,87,0.79,CI,1697596200
266,oum hadjer,13.2954,19.6966,27.61,20,85,3.18,TD,1697596200
267,acapulco de juarez,16.8634,-99.8901,28.9,79,100,3.6,MX,1697596162
268,alexandria,31.2156,29.9553,19.3,66,0,3.55,EG,1697596201
269,zhumysker,49.3333,49.4,3.79,62,10,4.38,KZ,1697596201
270,gurlan,41.8447,60.3919,9.04,47,100,1.5,UZ,1697596201
271,visby,57.6409,18.296,9.12,87,7,6.17,SE,1697596201
272,eldorado,-23.7869,-54.2836,25.12,70,69,4.21,BR,1697595908
273,ancud,-41.8697,-73.8203,8.41,88,22,1.23,CL,1697595781
274,dryden,49.7833,-92.7503,11.16,66,100,3.6,CA,1697596201
275,tutoia,-2.7619,-42.2744,26.22,79,77,4.88,BR,1697596202
276,la ronge,55.1001,-105.2842,6.14,75,40,1.03,CA,1697595776
277,chinde,26.8418,88.0763,18.7,65,6,1.14,NP,1697596202
278,kardla,58.9978,22.7492,6.14,90,100,6.35,EE,1697596202
279,rutana,-3.8667,30.1,15.23,78,98,1.15,BI,1697596202
280,isla mujeres,21.2311,-86.731,22.03,53,99,4.95,MX,1697596203
281,hetauda,27.4284,85.0322,22.65,63,7,1.45,NP,1697596203
282,penn yan,42.6609,-77.0539,10.4,92,100,0.0,US,1697595912
283,anadyr,64.75,177.4833,-5.72,67,20,8.94,RU,1697595748
284,tsiombe,-25.3,45.4833,21.72,94,100,2.4,MG,1697595751
285,badiyah,22.45,58.8,24.91,59,1,2.02,OM,1697596204
286,wewak,-3.5534,143.6268,29.85,66,21,2.26,PG,1697596204
287,cill airne,52.05,-9.5167,12.76,95,100,5.72,IE,1697595748
288,siwa oasis,29.2041,25.5195,20.87,63,0,2.02,EG,1697596204
289,naha,26.2125,127.6811,27.38,56,40,3.6,JP,1697595927
290,aldinga beach,-35.2793,138.4604,26.81,35,0,2.67,AU,1697596205
291,noyabrsk,63.1994,75.4507,6.8,97,23,4.47,RU,1697596205
292,hamilton,39.1834,-84.5333,10.4,85,75,2.57,US,1697595543
293,angaur state,6.906,134.13,28.16,73,19,1.1,PW,1697596205
294,demba,-5.51,22.2667,20.38,99,100,0.47,CD,1697596205
295,taoudenni,22.6783,-3.9836,30.07,15,0,3.37,ML,1697595783
296,crane,31.3974,-102.3501,20.37,32,0,8.25,US,1697595749
297,charef,34.621,2.795,17.83,33,4,3.73,DZ,1697596206
298,bahia de caraquez,-0.6,-80.4167,25.1,85,57,2.75,EC,1697596206
299,codrington,-38.2667,141.9667,21.74,41,9,3.33,AU,1697595745
300,pisco,-13.7,-76.2167,19.03,88,0,6.69,PE,1697595753
301,kampung tanjung karang,3.4242,101.1849,32.64,65,69,0.3,MY,1697596206
302,lebu,-37.6167,-73.65,10.49,90,5,5.23,CL,1697595752
303,pass christian,30.3158,-89.2475,16.02,82,0,0.0,US,1697596207
304,altai,46.3722,96.2583,0.52,27,7,1.55,MN,1697595804
305,mitu,1.1983,-70.1733,24.19,85,100,0.47,CO,1697595989
306,mahibadhoo,3.7833,72.9667,28.3,70,11,4.28,MV,1697596207
307,yaring,6.8662,101.3689,28.85,70,100,2.28,TH,1697596207
308,kirensk,57.7853,108.1119,0.57,95,99,0.89,RU,1697595803
309,villa zempoala,19.45,-96.4167,24.95,78,67,2.43,MX,1697596207
310,pangai,-19.8,-174.35,25.06,69,75,9.77,TO,1697596207
311,presidente medici,-11.1753,-61.9014,25.97,61,57,1.02,BR,1697596208
312,martapura,-3.4167,114.85,31.05,66,20,2.57,ID,1697596208
313,taitung city,22.7583,121.1444,26.15,83,75,1.54,TW,1697596208
314,san clemente,33.427,-117.612,24.34,87,20,1.34,US,1697596040
315,m'sila,35.7058,4.5419,21.88,23,20,4.76,DZ,1697596208
316,palora,-1.7,-77.9333,18.24,98,66,1.39,EC,1697596208
317,yeosu,34.7546,127.6599,18.82,52,29,1.72,KR,1697596209
318,nabire,-3.3667,135.4833,30.44,64,78,1.75,ID,1697595750
319,bikenibeu village,1.3673,173.1241,29.98,79,75,5.14,KI,1697596209
320,palu,-0.8917,119.8707,31.31,69,25,0.77,ID,1697596209
321,mount gambier,-37.8333,140.7667,22.63,32,7,2.22,AU,1697595788
322,esikhaleni,-28.871,31.8996,18.59,85,100,1.21,ZA,1697596209
323,glace bay,46.1969,-59.957,8.21,84,100,4.12,CA,1697596209
324,princeville,45.7668,-61.2985,7.51,94,75,2.57,CA,1697596209
325,carutapera,-1.195,-46.02,25.29,86,100,3.02,BR,1697595776
326,san patricio,28.017,-97.5169,20.47,46,0,3.55,US,1697595786
327,arkalyk,50.2486,66.9114,8.94,45,86,3.48,KZ,1697596210
328,kijang,35.2442,129.2139,19.85,38,99,4.46,KR,1697596210
329,shirgaon,19.7,72.7,27.8,64,6,3.32,IN,1697596210
330,ebon,4.582,168.6964,27.75,78,89,6.44,MH,1697596210
331,gumdag,39.2061,54.5906,15.8,53,100,0.39,TM,1697596210
332,porto novo,6.4965,2.6036,23.46,90,72,0.81,BJ,1697596210
333,sorong,-0.8833,131.25,28.8,72,9,2.43,ID,1697595758
334,dakhla,23.6848,-15.958,21.74,84,12,5.18,EH,1697596211
335,alaghsas,17.0187,8.0168,28.68,17,100,4.63,NE,1697596211
336,lazaro cardenas,17.9583,-102.2,26.09,87,100,0.13,MX,1697595727
337,puerto baquerizo moreno,-0.9,-89.6,23.51,84,64,4.58,EC,1697595742
338,san luis de la loma,17.2706,-100.8939,26.11,88,100,0.55,MX,1697595759
339,himatnagar,23.6,72.95,26.27,57,3,2.39,IN,1697596211
340,midvagur,62.0511,-7.1939,8.46,93,100,7.72,FO,1697596211
341,maralal,1.0968,36.698,15.17,84,54,2.31,KE,1697596212
342,shenjiamen,29.9576,122.298,22.42,62,0,6.17,CN,1697596212
343,guli,28.8833,120.0333,24.17,54,0,1.48,CN,1697596212
344,bairnsdale,-37.8333,147.6167,21.14,50,0,0.89,AU,1697595939
345,karratha,-20.7377,116.8463,34.81,15,0,1.59,AU,1697595744
346,puerto madryn,-42.7692,-65.0385,12.33,61,14,4.58,AR,1697596212
347,turar ryskulov,42.5333,70.3333,14.43,35,14,1.49,KZ,1697596213
348,moyale,3.5167,39.0584,19.73,83,48,1.89,KE,1697596213
349,at taraf,25.3628,49.725,24.3,76,0,2.94,SA,1697596213
350,kudymkar,59.0173,54.656,2.98,74,96,8.89,RU,1697596213
351,lorengau,-2.0226,147.2712,29.97,66,74,2.49,PG,1697596213
352,sechura,-5.5569,-80.8222,21.21,77,10,6.77,PE,1697596213
353,isafjordur,66.0755,-23.124,6.66,93,100,6.73,IS,1697595763
354,fort mcmurray,56.7268,-111.381,4.77,93,20,2.57,CA,1697596206
355,oloron-sainte-marie,43.1944,-0.6107,16.96,59,98,2.91,FR,1697596214
356,sosnogorsk,63.6023,53.8817,4.19,68,95,6.26,RU,1697596214
357,benguela,-12.5763,13.4055,22.7,82,98,1.88,AO,1697595753
358,port lincoln,-34.7333,135.8667,21.44,44,0,3.49,AU,1697595751
359,mana,5.6592,-53.7767,26.06,86,23,2.75,GF,1697596214
360,kingscliff,-28.2667,153.5667,22.65,77,100,6.17,AU,1697596214
361,beasain,43.0502,-2.2009,24.6,62,100,4.54,ES,1697596215
362,prince albert,53.2001,-105.7677,8.97,93,75,4.63,CA,1697596215
363,mount isa,-20.7333,139.5,34.87,10,0,3.09,AU,1697595782
364,santa ana,33.7456,-117.8678,26.34,79,20,3.09,US,1697596197
365,vernon,50.2581,-119.2691,13.75,58,100,1.34,CA,1697596215
366,canutama,-6.5339,-64.3831,26.64,62,33,0.65,BR,1697596215
367,hammerfest,70.6634,23.6821,0.25,93,75,2.57,NO,1697596215
368,muang phonsavan,19.45,103.2167,24.83,56,100,0.95,LA,1697596215
369,la junta,37.985,-103.5438,19.16,24,0,2.57,US,1697595773
370,banda aceh,5.5577,95.3222,27.26,70,97,2.3,ID,1697596216
371,alofi,-19.0595,-169.9187,24.94,57,75,10.8,NU,1697596216
372,quang ngai,15.1167,108.8,26.54,84,100,1.12,VN,1697596216
373,holualoa,19.6228,-155.9522,27.92,70,0,2.06,US,1697595755
374,puerto leguizamo,-0.1934,-74.7819,23.4,87,38,1.24,CO,1697596216
375,narvik,68.4384,17.4272,1.56,77,35,1.42,NO,1697596216
376,cooper's town,26.8667,-77.5167,23.78,55,86,3.62,BS,1697596216
377,bafoulabe,13.8065,-10.8321,25.42,74,99,1.55,ML,1697596216
378,blackwater,-23.5833,148.8833,28.16,48,2,4.22,AU,1697596217
379,ambon,-3.6954,128.1814,29.95,100,40,2.06,ID,1697596217
380,skovorodino,53.9833,123.9167,3.22,56,50,4.16,RU,1697596217
381,del rio,29.3627,-100.8968,23.06,34,0,8.05,US,1697595986
382,namtsy,62.7161,129.6658,-3.87,74,100,1.54,RU,1697596217
383,taroa,8.7058,171.2275,28.4,75,29,2.8,MH,1697595786
384,state college,40.7934,-77.86,9.36,85,100,2.57,US,1697596197
385,grand baie,-20.0182,57.5802,24.14,84,22,4.4,MU,1697596217
386,tomatlan,19.9333,-105.25,24.85,93,97,0.58,MX,1697596218
387,'ali sabieh,11.1558,42.7125,26.07,84,48,7.95,DJ,1697596218
388,kingston,17.997,-76.7936,29.53,88,20,3.09,JM,1697595503
389,guerrero negro,27.9769,-114.0611,20.85,78,28,5.44,MX,1697596218
390,oume,35.7839,139.2431,23.05,44,0,1.54,JP,1697596218
391,sezanne,48.7205,3.7234,10.88,81,39,4.57,FR,1697596218
392,dara,15.3484,-15.4799,26.65,71,0,3.03,SN,1697596219
393,mont-joli,48.5839,-68.1921,3.72,87,0,2.57,CA,1697596219
394,esmeraldas,-19.7625,-44.3139,25.97,56,45,2.36,BR,1697596219
395,camas,37.402,-6.0331,20.08,93,20,5.14,ES,1697596021
396,soto la marina,23.7667,-98.2167,17.25,72,77,2.08,MX,1697596219
397,sankt peter,48.0167,8.0333,6.04,91,100,2.34,DE,1697596219
398,samut prakan,13.5,100.45,31.02,71,61,1.33,TH,1697596219
399,seybaplaya,19.65,-90.6667,22.7,64,52,5.48,MX,1697596220
400,ceres,37.5949,-120.9577,26.0,56,0,0.0,US,1697596220
401,broome,42.2506,-75.833,10.37,93,100,2.06,US,1697596220
402,lycksele,64.5954,18.6735,-1.43,93,75,0.0,SE,1697596220
403,saint croix,17.7397,-64.7388,27.25,85,0,0.89,VI,1697596220
404,tikhvin,59.6451,33.5294,1.79,86,100,3.13,RU,1697596220
405,dwarka,22.2394,68.9678,27.04,73,0,3.53,IN,1697596220
406,kamloops,50.6665,-120.3192,11.55,81,100,6.17,CA,1697595795
407,hays,30.0502,-98.0336,18.97,52,0,3.42,US,1697596221
408,la passe,45.5549,-0.8967,19.43,80,76,10.01,FR,1697595790
409,qusmuryn,52.4503,64.6311,7.66,54,0,4.47,KZ,1697596221
410,nurota,40.5614,65.6886,18.12,27,100,3.81,UZ,1697596221
411,kurmuk,10.55,34.2833,21.12,88,49,1.05,SD,1697595746
412,kerikeri,-35.2268,173.9474,20.51,88,100,1.79,NZ,1697596204
413,gislaved,57.3044,13.5408,6.73,85,6,1.96,SE,1697596221
414,selfoss,63.9331,-20.9971,9.47,82,100,11.4,IS,1697596222
415,sinabang,2.4803,96.3801,27.14,80,59,3.29,ID,1697595798
416,carbonear,47.7332,-53.2148,5.08,87,100,2.68,CA,1697596222
417,cidade velha,14.9167,-23.6167,25.26,88,20,2.57,CV,1697596222
418,haimen,23.1935,116.6142,26.94,76,100,7.96,CN,1697596222
419,bouarfa,32.53,-1.95,17.36,28,100,0.64,MA,1697596222
420,gizo,-8.103,156.8419,28.47,76,76,4.8,SB,1697596222
421,nyala,12.05,24.8833,25.54,20,79,6.74,SD,1697596223
422,masterton,-40.9597,175.6575,18.81,63,94,3.04,NZ,1697595755
423,guarapari,-20.6667,-40.4975,24.38,89,81,2.76,BR,1697596223
424,rikaze,29.25,88.8833,6.18,38,89,1.69,CN,1697596223
425,kawalu,-7.3817,108.2082,31.09,41,85,2.7,ID,1697596223
426,taro,-8.3862,115.28,25.0,44,46,1.79,ID,1697595773
427,ilhabela,-23.7781,-45.3581,22.26,91,100,2.68,BR,1697596224
428,boca suno,-0.7167,-77.1333,22.34,95,89,1.07,EC,1697596224
429,antsiranana,-12.2787,49.2917,23.9,76,2,4.7,MG,1697596224
430,mersa matruh,31.3525,27.2453,22.11,78,40,2.57,EG,1697596224
431,ta`u,-14.2336,-169.5144,26.0,83,98,8.78,AS,1697595765
432,flying fish cove,-10.4217,105.6791,26.82,83,75,5.14,CX,1697595753
433,lukolela,-1.0605,17.1821,21.95,99,100,1.22,CD,1697596225
434,"laikit, laikit ii (dimembe)",1.4792,124.9735,31.47,55,20,2.06,ID,1697596225
435,rovnoye,50.7765,46.0509,4.4,70,1,7.2,RU,1697596225
436,ola,59.5833,151.2833,-1.99,34,0,5.02,RU,1697596225
437,puerto ayacucho,5.6639,-67.6236,24.28,91,29,1.89,VE,1697596225
438,happy valley-goose bay,53.3168,-60.3315,6.17,75,75,3.6,CA,1697595786
439,praya,14.9215,-23.5087,25.3,88,20,2.57,CV,1697596225
440,la'ie,21.6477,-157.9253,29.98,71,41,0.89,US,1697595766
441,remire-montjoly,4.9167,-52.2667,24.02,94,0,1.54,GF,1697595758
442,mercedes,-34.6515,-59.4307,12.66,63,13,2.87,AR,1697596226
443,seminole,28.7086,-81.2081,17.89,79,0,2.57,US,1697596226
444,negara,-8.3151,114.6025,30.0,62,30,2.95,ID,1697596226
445,mil'kovo,55.6078,37.7956,4.08,84,33,5.63,RU,1697596226
446,tralee,52.2704,-9.7026,12.68,93,100,7.71,IE,1697595748
447,rongelap,11.1635,166.8941,28.32,75,12,5.78,MH,1697595771
448,puerto cabezas,14.0351,-83.3888,25.25,90,99,4.11,NI,1697595761
449,vorkuta,67.5,64.0,2.2,96,100,4.3,RU,1697595780
450,dhidhdhoo,6.8833,73.1,28.24,72,66,2.12,MV,1697595777
451,iquique,-20.2208,-70.1431,19.02,75,41,0.29,CL,1697596227
452,sinan,34.8262,126.1086,20.06,62,66,2.49,KR,1697596227
453,el granada,37.5027,-122.4694,22.8,85,100,10.29,US,1697595772
454,kenai,60.5544,-151.2583,11.05,67,40,2.57,US,1697595780
455,sao vicente,-23.9631,-46.3919,24.97,54,100,3.58,BR,1697595770
456,belo oriente,-19.22,-42.4836,23.86,58,42,0.61,BR,1697596228
457,zemio,5.0314,25.1361,20.1,93,93,1.37,CF,1697596228
458,santa rosalia,27.3167,-112.2833,28.72,39,0,1.66,MX,1697596228
459,kemijarvi,66.7131,27.4306,-3.64,89,37,3.17,FI,1697596228
460,kabinda,-6.1333,24.4833,19.19,98,100,0.92,CD,1697596228
461,akom ii,2.7833,10.5667,21.02,100,100,0.52,CM,1697596228
462,coruripe,-10.1256,-36.1756,22.66,81,94,3.37,BR,1697596229
463,katsuren-haebaru,26.3369,127.8719,27.43,52,40,3.6,JP,1697596229
464,mugia,43.1041,-9.2179,17.87,88,100,10.07,ES,1697595754
465,vadso,70.0744,29.7487,1.49,86,75,4.63,NO,1697595772
466,trinity beach,-16.7888,145.6968,32.23,48,40,8.23,AU,1697596229
467,bischofshofen,47.4167,13.2167,6.5,63,83,2.09,AT,1697596229
468,klyuchi,52.2667,79.1667,7.56,50,12,3.11,RU,1697595770
469,barra velha,-26.6322,-48.6847,19.95,94,97,3.86,BR,1697596009
470,kourou,5.1552,-52.6478,24.03,86,73,2.84,GF,1697596230
471,nago,26.5881,127.9761,27.47,52,1,3.04,JP,1697596230
472,ashkasham,36.6833,71.5333,0.15,55,100,1.44,AF,1697595964
473,puerto santa,-8.9906,-78.6456,18.83,90,65,4.83,PE,1697596230
474,tulun,54.5611,100.5792,4.63,71,89,5.48,RU,1697596231
475,east london,-33.0153,27.9116,15.89,82,0,5.53,ZA,1697595764
476,abbadia san salvatore,42.8821,11.6695,12.92,82,100,1.21,IT,1697596231
477,airdrie,55.866,-3.9803,10.58,83,100,5.72,GB,1697596231
478,francisco sa,-16.4758,-43.4883,23.46,41,6,3.63,BR,1697596231
479,hafar al-batin,28.4328,45.9708,21.32,30,0,1.54,SA,1697596231
480,okahao,-17.885,15.0667,18.43,24,8,4.1,NA,1697596231
481,sovetskaya gavan',48.9723,140.2878,8.39,66,75,2.55,RU,1697596232
482,mosjoen,65.836,13.1908,-2.71,100,38,1.03,NO,1697596232
483,kavaratti,10.5669,72.642,27.78,75,76,1.68,IN,1697595772
484,kyren,51.6828,102.1408,2.19,70,86,0.45,RU,1697596232
485,yenagoa,4.9247,6.2642,23.64,97,100,1.74,NG,1697596232
486,betio village,1.358,172.9211,30.02,76,100,7.22,KI,1697596232
487,smara,26.7384,-11.6719,23.08,52,3,3.12,EH,1697596232
488,jinka,5.65,36.65,16.48,92,93,1.13,ET,1697596233
489,ataq,14.5377,46.8319,19.47,71,0,3.17,YE,1697595801
490,tindouf,27.6711,-8.1474,23.25,27,0,3.09,DZ,1697596233
491,sitka,57.0531,-135.33,13.94,58,100,7.2,US,1697595795
492,nyurba,63.2842,118.3319,-6.61,99,95,1.79,RU,1697596233
493,ocean shores,46.9737,-124.1563,13.9,96,100,4.12,US,1697596088
494,dernekpazari,40.8029,40.2396,11.01,81,100,1.86,TR,1697596233
495,mili,6.0815,171.735,28.39,69,59,0.44,MH,1697595746
496,lisala,2.15,21.5167,21.46,93,100,0.71,CD,1697596233
497,mumford,5.2618,-0.759,24.55,88,65,2.32,GH,1697596234
498,valparaiso,-33.0393,-71.6273,12.8,87,40,2.57,CL,1697595763
499,arteche,12.2645,125.4048,28.81,74,50,1.68,PH,1697596234
500,sakti,22.0333,82.9667,25.61,62,7,1.41,IN,1697596234
501,palembang,-2.9167,104.7458,31.05,62,40,3.6,ID,1697596038
502,pitkyaranta,61.5734,31.4792,1.95,79,99,4.37,RU,1697596234
503,timimoun,29.2639,0.231,21.21,21,0,1.54,DZ,1697595797
504,tadine,-21.55,167.8833,22.43,95,100,2.12,NC,1697596234
505,senanga,-16.1167,23.2667,20.15,73,48,2.06,ZM,1697596234
506,port shepstone,-30.7414,30.455,16.04,83,22,3.87,ZA,1697596235
507,hoquiam,46.9809,-123.8893,13.85,95,100,4.12,US,1697596235
508,hirara,24.8,125.2833,28.15,54,40,6.17,JP,1697596235
509,goroka,-6.0834,145.3873,24.15,65,49,1.29,PG,1697596235
510,mokhsogollokh,61.4681,128.9203,-1.54,43,100,2.04,RU,1697595762
511,sao felix do xingu,-6.6447,-51.995,27.59,41,86,0.96,BR,1697596235
512,el matama,16.7095,33.3565,27.63,21,7,3.55,SD,1697596235
513,songea,-10.6833,35.65,18.22,79,75,1.57,TZ,1697596236
514,tofol,5.3248,163.0078,27.88,83,75,4.12,FM,1697595800
515,inari,68.906,27.0288,-3.89,95,95,1.9,FI,1697596236
516,fale old settlement,-9.3852,-171.2468,28.4,73,18,2.95,TK,1697596236
517,salekhard,66.53,66.6019,1.46,100,100,2.04,RU,1697596236
518,tsukawaki,33.2667,131.15,20.95,34,0,1.03,JP,1697596236
519,arenapolis,-14.4503,-56.8461,28.63,38,28,1.93,BR,1697596236
520,arevalo,41.0626,-4.7204,17.39,80,99,8.8,ES,1697596237
521,ain leuh,33.2921,-5.3384,13.02,74,0,3.16,MA,1697596237
522,barranca,-10.75,-77.7667,19.15,87,81,3.41,PE,1697596237
523,kavieng,-2.5744,150.7967,29.08,69,57,0.7,PG,1697595798
524,punta del este,-34.9667,-54.95,11.06,73,20,6.69,UY,1697595786
525,boa vista,2.8197,-60.6733,26.99,78,20,3.09,BR,1697596237
526,nuku'alofa,-21.1333,-175.2,25.19,65,20,8.23,TO,1697595757
527,gadzhiyevo,69.2551,33.3362,2.03,70,100,5.66,RU,1697595765
528,haliyal,15.3333,74.7667,23.48,65,12,2.88,IN,1697596238
529,vila franca do campo,37.7167,-25.4333,21.23,99,100,6.84,PT,1697595787
530,vila velha,-20.3297,-40.2925,24.97,86,0,6.17,BR,1697596238
531,burley,42.5357,-113.7928,14.55,60,0,5.36,US,1697595978
532,al kharijah,25.4514,30.5464,20.48,44,0,3.14,EG,1697595773
533,pakse,15.1167,105.7833,26.08,83,40,1.03,LA,1697596238
534,al ghayzah,16.2079,52.176,24.86,79,10,1.51,YE,1697596238
535,berwick-upon-tweed,55.7833,-2.0,11.13,85,100,8.87,GB,1697596238
536,fabens,31.5023,-106.1586,28.65,31,24,1.41,US,1697596239
537,akhty,41.4597,47.7312,9.13,89,96,0.86,RU,1697596239
538,ingeniero jacobacci,-41.3427,-69.5448,14.11,22,0,3.86,AR,1697596239
539,noumea,-22.2763,166.4572,25.56,99,61,4.9,NC,1697595995
540,khandyga,62.6667,135.6,-3.1,66,100,0.82,RU,1697596239
541,bowen,-20.0167,148.2333,25.2,66,77,9.66,AU,1697595812
542,awjilah,29.1081,21.2869,20.2,60,1,2.9,LY,1697595794
543,mosfellsbaer,64.1667,-21.7,10.01,89,75,9.26,IS,1697596158
544,marsh harbour,26.5412,-77.0636,24.28,58,68,4.16,BS,1697596239
545,santa vitoria do palmar,-33.5189,-53.3681,8.99,85,1,3.89,BR,1697596240
546,barrouallie,13.2333,-61.2667,27.06,72,12,4.31,VC,1697596240
547,houghton,47.1219,-88.569,8.79,89,0,2.06,US,1697596208
548,port saint john's,-31.6229,29.5448,16.07,85,4,4.19,ZA,1697595786
549,el nido,11.1858,119.3956,28.86,78,26,6.31,PH,1697596240
550,dom pedro,-4.4833,-44.45,26.99,70,94,1.93,BR,1697596185
551,chela,34.069,104.4619,4.45,95,100,1.11,CN,1697596240
552,hudson,40.7168,-74.0663,15.11,74,75,2.06,US,1697596240
553,melfort,52.8667,-104.6177,9.07,87,100,3.6,CA,1697596241
554,orumiyeh,37.5527,45.0761,5.75,87,0,3.09,IR,1697596241
555,suva,-18.1416,178.4415,26.71,74,75,5.14,FJ,1697596241
556,saint-georges,12.0564,-61.7485,27.82,89,20,4.12,GD,1697596241
557,potsdam,52.3989,13.0657,7.38,79,8,1.41,DE,1697596241
558,aktau,43.65,51.2,5.32,62,98,3.01,KZ,1697596241
559,kuacjok,8.3002,27.9903,22.6,79,86,1.75,SS,1697596241
560,san rafael del sur,11.8485,-86.4384,25.54,85,99,4.78,NI,1697596241
561,portland,45.5234,-122.6762,16.32,87,40,2.06,US,1697595587
562,loen,7.7601,168.2307,28.55,72,12,2.44,MH,1697596242
563,mejit,10.2753,170.8646,28.24,77,52,6.0,MH,1697596242
564,mariehamn,60.0973,19.9348,6.01,93,100,3.6,AX,1697596167
565,sinop,41.7711,34.8709,9.77,91,100,2.18,TR,1697596242
566,roma,43.2128,-75.4557,10.32,86,100,0.0,US,1697596133
567,san mariano,7.5,126.0,28.5,77,56,1.71,PH,1697596242
568,bonthe,7.5264,-12.505,24.25,91,98,2.17,SL,1697595797
569,kalulushi,-12.8378,28.0919,16.08,94,100,1.68,ZM,1697596242
570,sandnessjoen,66.0217,12.6316,-2.71,62,29,8.81,NO,1697595788
571,kimbe,-5.5502,150.1429,30.53,68,56,2.6,PG,1697596243
572,laguna,38.421,-121.4238,24.99,53,0,0.0,US,1697596243
573,lefkada,38.8275,20.7019,17.95,100,75,0.0,GR,1697596243
574,berdigestyakh,62.0989,126.6992,-4.84,69,100,4.47,RU,1697596243
575,san antonio de pale,-1.4014,5.6325,25.23,81,90,3.13,GQ,1697595743
576,porbandar,21.6422,69.6093,26.35,74,0,3.75,IN,1697596243
577,champerico,14.3,-91.9167,26.58,80,99,1.19,GT,1697595793
578,bayanhongor,46.7167,100.1167,2.25,32,27,1.06,MN,1697596243
579,niquero,20.0431,-77.5828,26.03,84,24,4.03,CU,1697596244
580,ternate,0.8,127.4,28.98,73,20,3.24,ID,1697596244
581,tamiahua,21.2667,-97.45,21.03,66,99,0.52,MX,1697596244
582,manadhoo,5.7667,73.3833,27.83,76,72,3.65,MV,1697596244
583,fort st. john,56.2499,-120.8529,8.94,61,75,4.12,CA,1697595790
