City_ID,City,Lat,Lng,Max Temp,Humidity,Cloudiness,Wind Speed,Country,Date
0,chonchi,-42.6128,-73.8092,9.56,96,61,1.42,CL,1697594617
1,jamestown,42.097,-79.2353,8.73,100,100,3.6,US,1697594438
2,ushuaia,-54.8,-68.3,11.81,43,20,5.66,AR,1697594487
3,aldinga beach,-35.2793,138.4604,26.22,37,0,2.51,AU,1697594617
4,iqaluit,63.7506,-68.5145,-2.15,74,100,1.03,CA,1697594509
5,adamstown,-25.066,-130.1015,22.28,87,100,3.5,PN,1697594618
6,olonkinbyen,70.9221,-8.7187,0.84,79,100,2.77,SJ,1697594618
7,uvinza,-5.1036,30.3911,20.86,76,99,0.88,TZ,1697594618
8,zaozersk,69.4005,32.4476,0.47,78,100,3.76,RU,1697594618
9,yellowknife,62.456,-114.3525,1.9,100,100,3.09,CA,1697594472
10,port-aux-francais,-49.35,70.2167,2.44,74,99,6.17,TF,1697594618
11,longyearbyen,78.2186,15.6401,-7.09,73,40,6.17,SJ,1697594510
12,margaret river,-33.95,115.0667,18.17,61,23,4.98,AU,1697594618
13,ryotsu-minato,38.0833,138.4333,19.09,52,5,1.02,JP,1697594619
14,yigo village,13.5361,144.8886,29.16,83,100,5.66,GU,1697594619
15,san clemente del tuyu,-36.3569,-56.7235,6.66,68,0,4.83,AR,1697594619
16,wailua homesteads,22.0669,-159.378,28.24,72,4,0.89,US,1697594619
17,port alfred,-33.5906,26.891,16.56,80,0,3.73,ZA,1697594619
18,tafuna,-14.3358,-170.72,26.16,83,92,9.78,AS,1697594619
19,san patricio,28.017,-97.5169,21.02,46,0,3.55,US,1697594619
20,floro,61.5996,5.0328,4.98,100,99,3.09,NO,1697594619
21,lebu,-37.6167,-73.65,10.49,90,5,5.23,CL,1697594620
22,nogliki,51.8333,143.1667,9.08,84,91,3.13,RU,1697594620
23,new norfolk,-42.7826,147.0587,23.73,24,9,1.6,AU,1697594620
24,anadyr,64.75,177.4833,-5.72,67,9,10.0,RU,1697594620
25,fort frances,48.5999,-93.4003,11.12,71,100,2.57,CA,1697594620
26,albany,42.6001,-73.9662,11.36,86,41,2.15,US,1697594456
27,farah,32.5,62.5,17.41,20,56,0.99,AF,1697594620
28,modimolle,-24.7,28.4,13.12,76,0,2.15,ZA,1697594621
29,waitangi,-43.9535,-176.5597,12.68,74,27,3.13,NZ,1697594621
30,tiksi,71.6872,128.8694,-14.94,100,100,1.59,RU,1697594621
31,lekeitio,43.3666,-2.5007,26.32,57,100,6.01,ES,1697594621
32,ribeira grande,38.5167,-28.7,22.1,95,100,8.94,PT,1697594621
33,vadso,70.0744,29.7487,1.49,86,75,4.63,NO,1697594621
34,papatowai,-46.5619,169.4708,15.49,56,77,7.87,NZ,1697594621
35,haiku-pauwela,20.9219,-156.3051,27.92,61,25,4.02,US,1697594622
36,port mathurin,-19.6833,63.4167,23.69,81,21,4.28,MU,1697594622
37,ilulissat,69.2167,-51.1,-8.99,67,75,3.6,GL,1697594622
38,north bend,43.4065,-124.2243,15.13,94,0,1.54,US,1697594622
39,tazovsky,67.4667,78.7,5.09,96,100,5.77,RU,1697594622
40,port elizabeth,-33.918,25.5701,15.17,89,0,1.03,ZA,1697594403
41,ha giang,22.8333,104.9833,27.77,64,41,0.77,VN,1697594622
42,grytviken,-54.2811,-36.5092,1.67,88,98,5.68,GS,1697594622
43,puerto natales,-51.7236,-72.4875,5.02,92,65,1.81,CL,1697594623
44,lucea,18.451,-78.1736,27.14,78,10,2.4,JM,1697594623
45,edinburgh of the seven seas,-37.0676,-12.3116,12.64,75,100,7.0,SH,1697594623
46,polyarnyy,69.1989,33.4478,2.11,72,100,5.27,RU,1697594623
47,bethel,41.3712,-73.414,12.02,85,75,1.54,US,1697594623
48,jasper,37.2001,-94.3502,12.23,75,0,2.06,US,1697594623
49,saint-francois,46.4154,3.9054,15.36,89,0,1.54,FR,1697594623
50,talnakh,69.4865,88.3972,-0.44,96,100,8.83,RU,1697594624
51,cidreira,-30.1811,-50.2056,15.1,77,85,5.14,BR,1697594624
52,vilyuysk,63.7553,121.6247,-3.23,96,100,2.24,RU,1697594624
53,belyayevka,51.3974,56.4096,4.64,79,8,4.09,RU,1697594624
54,port blair,11.6667,92.75,27.02,89,40,0.51,IN,1697594624
55,yanam,16.7333,82.2167,27.04,68,8,1.45,IN,1697594624
56,barcelos,41.5388,-8.6151,19.08,90,99,4.96,PT,1697594624
57,avarua,-21.2078,-159.775,25.03,61,20,5.14,CK,1697594624
58,klyuchi,52.2667,79.1667,7.56,50,12,3.11,RU,1697594625
59,hauterive,46.0901,3.4459,18.42,73,100,4.02,FR,1697594625
60,colonia,50.9333,6.95,7.75,79,0,1.54,DE,1697594388
61,asmara,15.3333,38.9333,13.55,79,94,1.38,ER,1697594625
62,west island,-12.1568,96.8225,26.99,78,40,6.17,CC,1697594625
63,aykhal,66.0,111.5,-11.07,93,98,4.92,RU,1697594625
64,kingston,17.997,-76.7936,29.53,83,20,3.6,JM,1697594399
65,salisbury,51.0693,-1.7957,13.66,81,100,6.69,GB,1697594625
66,thompson,55.7435,-97.8558,8.09,81,20,3.09,CA,1697594625
67,qamdo,31.1667,97.2333,2.82,41,2,3.1,CN,1697594626
68,lorengau,-2.0226,147.2712,29.99,65,65,1.93,PG,1697594626
69,zakynthos,37.7914,20.8953,18.69,72,79,4.55,GR,1697594626
70,wynyard,-41.0,145.7167,14.65,60,4,4.23,AU,1697594626
71,hassi messaoud,31.6804,6.0729,24.92,22,0,2.06,DZ,1697594626
72,jagraon,30.7833,75.4833,18.21,60,0,2.19,IN,1697594626
73,nagqu,31.5,92.0,-2.67,91,100,0.91,CN,1697594626
74,bredasdorp,-34.5322,20.0403,14.01,95,0,1.36,ZA,1697594592
75,tual,-5.6667,132.75,26.78,76,71,7.69,ID,1697594627
76,puerto ayora,-0.7393,-90.3518,24.19,94,22,1.79,EC,1697594627
77,hermanus,-34.4187,19.2345,15.34,92,0,2.84,ZA,1697594627
78,jimo,36.3897,120.4622,20.88,73,100,4.0,CN,1697594627
79,arraial do cabo,-22.9661,-42.0278,22.76,92,81,4.01,BR,1697594495
80,remire-montjoly,4.9167,-52.2667,26.02,89,0,1.54,GF,1697594627
81,stanley,54.868,-1.6985,9.87,89,40,4.63,GB,1697594627
82,atafu village,-8.5421,-172.5159,28.54,72,100,2.39,TK,1697594628
83,rongelap,11.1635,166.8941,28.32,75,12,5.78,MH,1697594628
84,minas de marcona,-15.2119,-75.1103,15.58,83,92,4.59,PE,1697594628
85,mejit,10.2753,170.8646,28.14,77,33,5.95,MH,1697594628
86,rumoi,43.9344,141.6428,15.08,62,22,4.71,JP,1697594628
87,puerto ayacucho,5.6639,-67.6236,25.25,86,26,1.7,VE,1697594628
88,bardai,11.65,7.2333,23.67,67,93,2.65,NG,1697594628
89,queenstown,-31.8976,26.8753,11.61,72,0,1.51,ZA,1697594629
90,puerto baquerizo moreno,-0.9,-89.6,23.51,84,64,4.58,EC,1697594629
91,thohoyandou,-22.9456,30.485,14.06,82,2,0.89,ZA,1697594629
92,coquimbo,-29.9533,-71.3436,14.85,82,100,2.06,CL,1697594498
93,nacala,-14.5428,40.6728,23.65,89,100,2.78,MZ,1697594629
94,calama,-22.4667,-68.9333,16.27,33,0,7.72,CL,1697594629
95,kununurra,-15.7667,128.7333,34.99,14,0,3.6,AU,1697594629
96,katsuren-haebaru,26.3369,127.8719,26.89,51,0,3.1,JP,1697594629
97,kapuskasing,49.4169,-82.4331,6.0,87,0,2.57,CA,1697594629
98,blackmans bay,-43.0167,147.3167,23.07,38,23,0.45,AU,1697594630
99,geraldton,-28.7667,114.6,22.23,56,2,6.69,AU,1697594630
100,berdyansk,46.7503,36.7944,6.78,62,55,2.38,UA,1697594630
101,lazaro cardenas,17.9583,-102.2,26.09,87,100,0.13,MX,1697594630
102,ust'-kulom,61.6864,53.6902,4.6,65,100,7.15,RU,1697594630
103,robore,-18.3333,-59.75,27.83,45,26,1.77,BO,1697594630
104,saipan,15.1355,145.701,28.83,79,71,6.23,MP,1697594630
105,utrik,11.2278,169.8474,28.03,80,92,8.1,MH,1697594630
106,tirebolu,41.0069,38.8139,13.24,78,100,1.71,TR,1697594631
107,nabire,-3.3667,135.4833,30.44,64,78,1.75,ID,1697594631
108,hawaiian paradise park,19.5933,-154.9731,26.69,81,48,0.89,US,1697594631
109,kalix,65.853,23.1565,-1.27,77,28,4.74,SE,1697594631
110,la passe,45.5549,-0.8967,20.13,80,76,10.01,FR,1697594631
111,mayya,61.7333,130.2811,-6.38,83,100,1.5,RU,1697594631
112,kodiak,57.79,-152.4072,8.73,81,100,4.63,US,1697594631
113,carnarvon,-24.8667,113.6333,28.57,32,0,7.69,AU,1697594631
114,al 'aziziyah,32.9058,45.0616,22.9,38,0,2.19,IQ,1697594632
115,santa cruz,-17.8,-63.1667,27.7,57,70,2.06,BO,1697594439
116,filadelfia,39.9523,-75.1638,13.67,86,100,1.54,US,1697594431
117,noshiro,40.2039,140.0242,18.46,55,69,4.9,JP,1697594632
118,isafjordur,66.0755,-23.124,6.66,93,100,6.73,IS,1697594632
119,ipubi,-7.6519,-40.1489,22.89,37,77,2.6,BR,1697594632
120,fale old settlement,-9.3852,-171.2468,28.31,74,17,3.04,TK,1697594632
121,barmer,25.75,71.3833,25.52,66,0,1.3,IN,1697594632
122,enewetak,11.3474,162.3373,28.43,77,52,7.07,MH,1697594633
123,hobyo,5.3505,48.5268,27.5,79,25,4.66,SO,1697594633
124,dudinka,69.4058,86.1778,-0.18,98,100,2.68,RU,1697594633
125,nova sintra,14.8667,-24.7167,25.26,71,0,2.57,CV,1697594633
126,iguai,-14.7564,-40.0892,17.42,95,3,1.23,BR,1697594633
127,bilibino,68.0546,166.4372,-15.02,94,100,1.79,RU,1697594633
128,yarmouth,41.7057,-70.2286,12.76,93,100,0.89,US,1697594633
129,constantia,44.1833,28.65,10.39,66,100,3.78,RO,1697594633
130,flying fish cove,-10.4217,105.6791,26.82,83,75,5.14,CX,1697594634
131,tura,25.5198,90.2201,23.4,77,0,0.38,IN,1697594634
132,tamanrasset,22.785,5.5228,20.95,18,0,3.09,DZ,1697594634
133,umm kaddadah,13.6017,26.6876,26.05,18,86,6.84,SD,1697594634
134,harper,4.375,-7.7169,24.74,89,65,1.28,LR,1697594634
135,gilgit,35.9221,74.3087,11.76,69,63,1.78,PK,1697594634
136,ponta delgada,37.7333,-25.6667,21.4,88,75,7.2,PT,1697594413
137,iskateley,67.6803,53.1512,1.12,89,100,4.02,RU,1697594634
138,saldanha,-33.0117,17.9442,14.03,95,3,6.16,ZA,1697594635
139,pikalevo,59.5183,34.1664,0.96,94,100,3.1,RU,1697594635
140,touros,-5.1989,-35.4608,25.28,75,29,7.02,BR,1697594635
141,sinabang,2.4803,96.3801,27.14,80,59,3.29,ID,1697594635
142,bria,6.5423,21.9863,19.85,96,98,1.03,CF,1697594635
143,uturoa,-16.7333,-151.4333,25.9,83,78,6.06,PF,1697594635
144,platteville,42.7342,-90.4785,12.85,66,0,3.6,US,1697594408
145,san carlos,9.6612,-68.5827,23.92,88,8,1.55,VE,1697594635
146,vernon,50.2581,-119.2691,14.34,52,100,1.03,CA,1697594402
147,ongjin,37.9347,125.3619,18.59,61,97,5.44,KP,1697594635
148,porto torres,40.835,8.3972,16.1,64,100,1.99,IT,1697594636
149,victorica,-36.2151,-65.4359,14.83,26,0,7.25,AR,1697594636
150,maturin,9.75,-63.1767,24.66,87,0,2.39,VE,1697594636
151,sitka,57.0531,-135.33,13.94,58,100,7.2,US,1697594636
152,tumut,-35.3,148.2167,21.02,35,0,2.16,AU,1697594636
153,yaya,56.206,86.44,8.45,82,100,4.41,RU,1697594636
154,juan griego,11.0817,-63.9655,27.42,83,2,5.35,VE,1697594636
155,hammerfest,70.6634,23.6821,0.25,93,75,2.57,NO,1697594636
156,san martin de los andes,-40.1604,-71.3486,11.47,42,0,0.45,AR,1697594637
157,allapalli,19.4167,80.0667,22.89,73,5,0.73,IN,1697594637
158,halabjah,35.1778,45.9861,16.92,52,0,1.51,IQ,1697594637
159,kosong,38.3788,128.4676,22.27,39,97,3.35,KR,1697594637
160,ati,13.2154,18.3353,29.62,19,58,4.95,TD,1697594637
161,kingscliff,-28.2667,153.5667,22.65,56,100,6.69,AU,1697594638
162,invercargill,-46.4,168.35,14.45,72,100,8.94,NZ,1697594638
163,keflavik,64.0049,-22.5624,10.24,87,100,16.46,IS,1697594638
164,ghadamis,30.1337,9.5007,24.39,18,63,4.96,LY,1697594638
165,peniche,39.3558,-9.3811,20.06,92,91,7.55,PT,1697594638
166,ust-nera,64.5667,143.2,-15.44,85,97,1.34,RU,1697594638
167,kavaratti,10.5669,72.642,27.78,75,76,1.68,IN,1697594638
168,kapit,2.0167,112.9333,27.98,89,99,0.88,MY,1697594638
169,macau,22.2006,113.5461,25.89,88,40,7.72,MO,1697594437
170,sarupathar,26.1984,93.8094,24.03,78,0,0.96,IN,1697594639
171,fortuna,40.5982,-124.1573,14.64,95,0,2.57,US,1697594639
172,nemuro,43.3236,145.575,13.93,61,25,6.53,JP,1697594639
173,novodvinsk,64.4165,40.8122,3.77,78,100,4.5,RU,1697594639
174,petropavlovsk-kamchatsky,53.0452,158.6483,6.36,88,75,5.0,RU,1697594639
175,nagato,34.3833,131.2,21.41,43,14,2.16,JP,1697594639
176,markala,13.7021,-6.0659,28.4,51,100,1.46,ML,1697594639
177,mount pearl,47.5166,-52.7813,4.07,91,75,2.06,CA,1697594640
178,genhe,50.7833,121.5167,3.99,47,13,4.17,CN,1697594640
179,jiuquan,39.7432,98.5174,4.2,73,100,3.99,CN,1697594640
180,phan rang-thap cham,11.5667,108.9833,29.41,72,83,2.71,VN,1697594640
181,vega de alatorre,20.0333,-96.6333,21.85,76,60,2.64,MX,1697594640
182,kamaishi,39.2667,141.8833,18.02,55,0,0.88,JP,1697594640
183,longquan,24.6719,102.1613,20.08,75,5,1.43,CN,1697594640
184,westport,41.1415,-73.3579,12.72,82,0,2.06,US,1697594564
185,krasnoshchekovo,51.6708,82.7289,6.1,66,6,1.28,RU,1697594640
186,mangrol,21.1167,70.1167,25.26,74,5,5.0,IN,1697594641
187,nishinoomote,30.7333,131.0,22.31,73,20,2.57,JP,1697594641
188,zag,46.9441,99.165,1.75,34,58,1.95,MN,1697594641
189,porto novo,6.4965,2.6036,23.9,88,75,1.15,BJ,1697594432
190,shimokizukuri,40.8061,140.3861,19.41,63,56,4.32,JP,1697594641
191,midvagur,62.0511,-7.1939,8.46,93,100,7.2,FO,1697594642
192,traverse city,44.7631,-85.6206,10.11,88,100,0.0,US,1697594592
193,arenapolis,-14.4503,-56.8461,29.21,36,23,2.04,BR,1697594642
194,zeya,53.75,127.2667,1.94,70,79,1.43,RU,1697594642
195,tolanaro,-25.0319,46.9987,22.04,94,75,2.57,MG,1697594642
196,punta arenas,-53.15,-70.9167,9.06,71,75,6.17,CL,1697594380
197,nykoping,58.753,17.0079,4.16,93,0,3.09,SE,1697594643
198,burgersdorp,-30.9977,26.3286,13.52,50,0,1.91,ZA,1697594643
199,kameshkovo,56.3481,41.0047,3.18,90,100,6.71,RU,1697594643
200,udachny,66.4167,112.4,-9.75,85,91,6.36,RU,1697594643
201,berezovyy,51.6667,135.7,6.86,70,100,1.55,RU,1697594643
202,dzilam gonzalez,21.2833,-88.9333,22.47,62,100,1.94,MX,1697594643
203,ancud,-41.8697,-73.8203,10.95,81,4,1.85,CL,1697594414
204,chakulia,22.4833,86.7167,25.4,74,4,1.99,IN,1697594644
205,port lincoln,-34.7333,135.8667,21.44,44,0,3.49,AU,1697594644
206,vorgashor,67.5833,63.95,1.91,97,100,4.64,RU,1697594644
207,hadibu,12.65,54.0333,26.97,75,11,1.96,YE,1697594644
208,tongouson,5.0214,120.1328,28.55,76,99,2.73,PH,1697594644
209,nicoya,10.1483,-85.452,24.32,93,100,2.12,CR,1697594427
210,whitehorse,60.7161,-135.0538,8.9,90,75,2.06,CA,1697594466
211,hampton bays,40.869,-72.5176,14.39,89,29,1.48,US,1697594354
212,sao paulo de olivenca,-3.3783,-68.8725,25.35,80,64,1.23,BR,1697594645
213,shaowu,27.3409,117.4831,23.23,63,0,1.41,CN,1697594645
214,sitangkai,4.6628,119.3928,28.58,75,65,2.83,PH,1697594645
215,laguna,38.421,-121.4238,25.6,49,0,0.0,US,1697594645
216,dwarka,22.2394,68.9678,26.24,77,0,3.45,IN,1697594645
217,shingu,33.7333,135.9833,22.15,56,0,1.87,JP,1697594594
218,qarauyl,48.9451,79.255,3.91,67,2,3.01,KZ,1697594645
219,college,64.8569,-147.8028,1.97,82,75,0.0,US,1697594646
220,badger,64.8,-147.5333,1.93,82,100,0.0,US,1697594646
221,puerto aysen,-45.4,-72.7,7.5,98,100,0.77,CL,1697594646
222,morehead city,34.7229,-76.726,16.12,81,100,2.57,US,1697594405
223,bryne,58.7354,5.6477,7.54,99,100,1.03,NO,1697594646
224,hamilton,39.1834,-84.5333,10.41,85,75,2.57,US,1697594624
225,stjordalshalsen,63.4681,10.9262,5.0,87,100,2.06,NO,1697594647
226,thunder bay,48.4001,-89.3168,7.99,93,0,1.54,CA,1697594647
227,hatton,6.8916,80.5955,17.24,96,100,0.49,LK,1697594647
228,turuvekere,13.1642,76.6667,21.56,68,91,2.31,IN,1697594647
229,fada,9.5667,8.3,20.42,90,100,1.52,NG,1697594647
230,bologoye,57.8799,34.1068,1.09,96,77,2.96,RU,1697594647
231,jebrail,39.3992,47.0283,11.66,85,98,2.5,AZ,1697594648
232,kourou,5.1552,-52.6478,26.03,84,60,3.25,GF,1697594648
233,pudozh,61.8099,36.5345,4.41,72,94,5.81,RU,1697594648
234,faversham,51.3148,0.8886,12.97,80,100,7.61,GB,1697594648
235,strezhevoy,60.7333,77.5889,7.2,96,25,3.13,RU,1697594648
236,okha,53.5739,142.9478,6.71,87,100,3.09,RU,1697594649
237,howrah,22.5892,88.3103,27.0,89,20,0.0,IN,1697594649
238,shahrak,34.1074,64.3052,4.34,72,2,1.81,AF,1697594649
239,itaituba,-4.2761,-55.9836,25.01,73,24,0.61,BR,1697594649
240,ulanhot,46.0833,122.0833,12.7,24,11,5.41,CN,1697594649
241,kailua-kona,19.6406,-155.9956,29.99,70,4,1.79,US,1697594615
242,nikolayevsk-on-amure,53.1406,140.73,8.19,68,66,1.47,RU,1697594650
243,port shepstone,-30.7414,30.455,16.19,84,33,3.84,ZA,1697594650
244,kargopol',61.5071,38.9456,4.47,77,100,5.81,RU,1697594650
245,la ronge,55.1001,-105.2842,10.14,66,40,2.06,CA,1697594598
246,planadas,3.197,-75.6451,27.24,83,77,1.86,CO,1697594650
247,kuchinda,21.7333,84.35,24.2,74,3,0.32,IN,1697594650
248,lompoc,34.6391,-120.4579,20.43,87,100,8.94,US,1697594650
249,cabo san lucas,22.8909,-109.9124,30.17,58,0,2.06,MX,1697594651
250,basco,20.4487,121.9702,27.12,72,100,7.58,PH,1697594651
251,alta,69.9689,23.2717,-4.41,84,40,1.54,NO,1697594651
252,farkhar,36.5729,69.8578,14.42,47,100,1.25,AF,1697594651
253,weno,7.4515,151.8468,29.97,89,100,3.6,FM,1697594651
254,vorkuta,67.5,64.0,2.2,96,100,4.3,RU,1697594651
255,muynoq,43.7683,59.0214,12.42,69,85,3.95,UZ,1697594651
256,keren,15.7778,38.4581,20.0,70,89,2.5,ER,1697594652
257,la'ie,21.6477,-157.9253,29.66,71,41,1.79,US,1697594652
258,cafayate,-26.073,-65.9761,16.24,80,100,2.3,AR,1697594435
259,newman,37.3138,-121.0208,25.16,60,0,2.58,US,1697594652
260,tanumah,27.1,44.1333,22.78,37,99,5.8,SA,1697594652
261,kharan,28.5833,65.4167,22.43,32,80,0.43,PK,1697594652
262,villa hidalgo,21.6667,-102.6,15.43,40,85,3.34,MX,1697594652
263,shiyan,32.6475,110.7781,21.02,62,92,0.92,CN,1697594652
264,papao,-17.75,-149.55,28.82,83,94,7.9,PF,1697594653
265,nizhnesortymskiy,62.4397,71.7603,5.94,93,1,7.11,RU,1697594653
266,pelotas,-31.7719,-52.3425,13.01,85,20,5.66,BR,1697594624
267,zaigrayevo,51.8336,108.2703,3.86,79,82,5.86,RU,1697594653
268,kikwit,-5.041,18.8162,22.11,95,100,1.33,CD,1697594653
269,susuman,62.7833,148.1667,-13.9,62,26,0.45,RU,1697594653
270,meadow lake,34.8014,-106.5436,22.04,25,0,0.58,US,1697594653
271,malkara,40.89,26.9011,11.73,86,100,4.17,TR,1697594654
272,trinidad,-14.8333,-64.9,28.91,48,9,2.23,BO,1697594654
273,acajutla,13.5928,-89.8275,26.87,66,95,3.27,SV,1697594654
274,ta`u,-14.2336,-169.5144,26.0,83,98,8.78,AS,1697594654
275,pacific grove,36.6177,-121.9166,20.25,88,3,2.24,US,1697594463
276,kashgar,39.4547,75.9797,13.56,33,75,3.0,CN,1697594654
277,luderitz,-26.6481,15.1594,18.33,62,0,3.98,NA,1697594654
278,prince albert,53.2001,-105.7677,8.97,93,75,0.0,CA,1697594654
279,nasir,15.5894,32.5634,29.13,17,0,5.64,SD,1697594654
280,bengkulu,-3.8004,102.2655,26.8,75,82,1.75,ID,1697594655
281,faya-largeau,17.9257,19.1043,27.49,21,12,8.58,TD,1697594655
282,namibe,-15.1961,12.1522,17.26,81,49,0.79,AO,1697594655
283,atherton,53.5237,-2.4935,11.25,83,100,0.45,GB,1697594655
284,zarghun shahr,32.8473,68.4457,6.82,70,13,1.6,AF,1697594655
285,georgetown,5.4112,100.3354,28.96,84,20,2.57,MY,1697594493
286,kudahuvadhoo,2.6708,72.8944,27.76,74,42,4.89,MV,1697594655
287,alofi,-19.0595,-169.9187,25.94,53,75,9.77,NU,1697594497
288,ephraim,39.3597,-111.5863,15.45,35,0,0.82,US,1697594656
289,ichinohe,40.2069,141.3017,17.78,53,3,3.49,JP,1697594656
290,kiunga,-6.1219,141.2906,23.8,96,100,0.92,PG,1697594656
291,horta,38.5333,-28.6333,21.68,95,100,9.39,PT,1697594488
292,mar del plata,-38.0023,-57.5575,9.49,81,0,0.89,AR,1697594438
293,muroto-misakicho,33.2833,134.15,21.74,60,0,1.56,JP,1697594656
294,walvis bay,-22.9575,14.5053,15.05,88,7,3.6,NA,1697594656
295,gonzaga,44.9498,10.8209,13.41,56,100,2.34,IT,1697594656
296,sola,-13.8833,167.55,25.85,79,95,6.25,VU,1697594657
297,margate,51.3813,1.3862,12.61,75,100,2.68,GB,1697594435
298,kayangel,8.0823,134.7173,28.02,74,44,0.42,PW,1697594657
299,olyokminsk,60.3736,120.4264,1.11,67,99,3.58,RU,1697594657
300,qarqaraly,49.4058,75.4742,5.49,41,6,1.56,KZ,1697594657
301,afaahiti,-17.75,-149.2833,27.93,85,96,7.33,PF,1697594657
302,murudeshwara,14.0943,74.4845,26.32,85,55,1.3,IN,1697594657
303,shahr-e babak,30.1165,55.1186,14.79,46,0,2.53,IR,1697594657
304,saint-peray,44.95,4.8333,19.1,81,100,3.91,FR,1697594657
305,bouarfa,32.53,-1.95,17.91,27,100,1.3,MA,1697594658
306,nyurba,63.2842,118.3319,-6.61,99,94,1.79,RU,1697594658
307,saint-pierre,-21.3393,55.4781,22.82,68,100,2.57,RE,1697594658
308,gamba,-2.65,10.0,24.66,83,100,1.54,GA,1697594658
309,kayenta,36.7278,-110.2546,19.69,24,14,1.92,US,1697594658
310,adelaide,-34.9333,138.6,26.69,28,0,3.09,AU,1697594402
311,gadzhiyevo,69.2551,33.3362,2.03,70,100,5.66,RU,1697594658
312,lowestoft,52.4752,1.7516,11.92,67,100,10.17,GB,1697594658
313,murashi,59.3999,48.9615,1.09,96,100,7.65,RU,1697594659
314,caleta de carquin,-11.0925,-77.6267,19.79,86,92,4.89,PE,1697594659
315,villamontes,-21.25,-63.5,24.32,66,99,3.15,BO,1697594659
316,el hadjar,36.8038,7.7368,18.95,48,0,3.09,DZ,1697594659
317,young,-32.6833,-57.6333,9.11,57,8,4.89,UY,1697594659
318,sur,22.5667,59.5289,27.61,58,0,4.45,OM,1697594659
319,egilsstadir,65.2653,-14.3948,4.95,87,40,3.09,IS,1697594659
320,sebastopol,44.6,33.5333,12.55,58,100,3.13,UA,1697594660
321,aioun,16.6614,-9.6149,30.25,31,5,2.36,MR,1697594660
322,nur-sultan,51.1801,71.446,0.97,100,2,3.0,KZ,1697594660
323,yaren,-0.5472,166.916,28.36,75,100,9.37,NR,1697594660
324,kirkwall,58.9848,-2.9587,9.42,87,86,3.6,GB,1697594660
325,khandyga,62.6667,135.6,-3.86,67,100,0.7,RU,1697594660
326,yanchep,-31.55,115.6833,21.68,60,99,3.58,AU,1697594660
327,whitecourt,54.1502,-115.6855,11.58,58,40,2.57,CA,1697594660
328,baardheere,2.3446,42.2764,26.17,79,19,5.29,SO,1697594661
329,mae hong son,19.3003,97.9685,25.08,94,75,0.0,TH,1697594661
330,mili,6.0815,171.735,28.39,69,59,0.44,MH,1697594661
331,coyhaique,-45.5752,-72.0662,11.34,76,0,1.03,CL,1697594661
332,longboat key,27.4125,-82.659,18.02,65,0,1.34,US,1697594661
333,kinablangan,7.6947,126.5503,28.91,72,43,2.12,PH,1697594661
334,labrador city,52.9463,-66.9114,1.95,80,100,4.63,CA,1697594410
335,stornoway,58.2093,-6.3865,8.98,88,72,1.54,GB,1697594661
336,lihue,21.9789,-159.3672,28.58,72,7,2.17,US,1697594450
337,yuzhno-kurilsk,44.0306,145.8556,10.76,75,14,8.01,RU,1697594662
338,conduaga,8.862,117.4893,30.43,67,77,0.48,PH,1697594662
339,brookings,44.3114,-96.7984,15.0,58,0,7.72,US,1697594662
340,ciudad lazaro cardenas,17.9583,-102.2,26.09,87,100,0.13,MX,1697594582
341,moose jaw,50.4001,-105.5344,13.15,54,40,7.2,CA,1697594420
342,amaliada,37.8,21.35,18.71,100,40,1.54,GR,1697594662
343,male,4.1748,73.5089,27.97,83,40,2.57,MV,1697594394
344,lata,40.1629,-8.3327,17.82,91,82,3.74,PT,1697594663
345,qaqortoq,60.7167,-46.0333,-1.11,51,7,2.26,GL,1697594663
346,muriti,-1.9833,32.9167,24.03,66,98,3.96,TZ,1697594663
347,brockville,44.5834,-75.6826,9.69,88,34,0.45,CA,1697594451
348,guiuan,11.0333,125.7247,28.64,71,15,2.75,PH,1697594663
349,yellapur,14.9667,74.7167,21.88,90,42,1.48,IN,1697594663
350,byakabanda,-0.7425,31.4064,17.21,89,92,1.4,UG,1697594663
351,katiola,8.1333,-5.1,22.51,95,87,0.79,CI,1697594663
352,magadan,59.5667,150.8,0.85,75,0,4.92,RU,1697594664
353,xining,36.6167,101.7667,5.22,68,100,2.58,CN,1697594664
354,mirny,62.5353,113.9611,-0.98,92,72,3.13,RU,1697594664
355,gulf shores,30.246,-87.7008,17.78,78,0,0.0,US,1697594511
356,raja,8.4596,25.678,21.44,86,100,1.39,SS,1697594664
357,eyl,7.9803,49.8164,26.58,82,7,1.72,SO,1697594664
358,mugia,43.1041,-9.2179,17.87,88,100,10.07,ES,1697594664
359,nouadhibou,20.931,-17.0347,23.25,73,9,7.57,MR,1697594664
360,recani,31.2846,-4.2688,23.48,30,17,2.97,MA,1697594665
361,great falls,47.5002,-111.3008,11.9,40,9,3.35,US,1697594405
362,alakurtti,66.9672,30.3491,-3.55,89,29,2.38,RU,1697594665
363,al burayqah,30.4062,19.5739,22.15,66,0,2.87,LY,1697594665
364,butare,-2.5967,29.7394,14.9,86,100,1.02,RW,1697594665
365,turaif,31.6725,38.6637,15.14,38,0,3.09,SA,1697594665
366,balsas,-7.5325,-46.0356,26.54,31,0,2.2,BR,1697594424
367,lasem,-6.6922,111.4527,31.29,51,54,4.35,ID,1697594666
368,rawson,-43.3002,-65.1023,11.53,58,62,3.91,AR,1697594666
369,bamboo flat,11.7,92.7167,27.05,89,40,0.51,IN,1697594657
370,hasaki,35.7333,140.8333,21.22,58,82,3.99,JP,1697594666
371,den burg,53.0542,4.7972,7.99,84,100,5.14,NL,1697594666
372,ma'rib,15.4591,45.3253,21.02,26,0,2.34,YE,1697594666
373,mount isa,-20.7333,139.5,33.87,10,0,3.6,AU,1697594445
374,zhezqazghan,47.7833,67.7667,-0.68,74,0,4.0,KZ,1697594666
375,nova vicosa,-17.8919,-39.3719,23.11,83,8,4.22,BR,1697594657
376,cestos city,5.46,-9.5828,24.9,89,86,1.66,LR,1697594667
377,dalandzadgad,43.5708,104.425,7.93,17,0,3.74,MN,1697594667
378,verdal,63.7933,11.4817,5.02,88,89,2.34,NO,1697594667
379,itati,-27.2704,-58.2446,22.3,76,91,5.76,AR,1697594667
380,east london,-33.0153,27.9116,14.57,86,0,2.22,ZA,1697594421
381,buala,-8.145,159.5921,29.2,71,41,3.88,SB,1697594667
382,korla,41.7597,86.1469,8.36,28,0,1.31,CN,1697594667
383,island harbour,50.724,-1.2758,13.9,85,100,4.92,GB,1697594668
384,morant bay,17.8815,-76.4093,29.79,81,15,2.0,JM,1697594668
385,nahavand,34.1885,48.377,9.98,52,0,1.36,IR,1697594668
386,berdigestyakh,62.0989,126.6992,-4.84,69,100,4.47,RU,1697594668
387,brezina,33.0989,1.2608,19.2,32,0,1.16,DZ,1697594668
388,ola,59.5833,151.2833,1.19,35,0,5.17,RU,1697594668
389,itoman,26.1247,127.6694,27.43,56,20,3.09,JP,1697594668
390,machico,32.7,-16.7667,22.62,79,20,2.06,PT,1697594669
391,rinconada,19.35,-96.5167,24.03,86,68,1.47,MX,1697594669
392,kedrovyy,56.1667,91.8167,7.23,94,100,2.76,RU,1697594669
393,burang,30.25,81.1667,-2.01,56,18,2.29,CN,1697594669
394,kuala belait,4.5833,114.1833,29.09,69,33,2.94,BN,1697594669
395,kerikeri,-35.2268,173.9474,19.95,89,100,0.45,NZ,1697594669
396,akureyri,65.6835,-18.0878,3.96,81,0,2.06,IS,1697594669
397,nar'yan-mar,67.6713,53.087,1.17,89,100,4.02,RU,1697594670
398,huarmey,-10.0681,-78.1522,20.01,86,100,4.45,PE,1697594670
399,malabar,-33.9667,151.25,22.24,51,20,5.14,AU,1697594670
400,pacocha,-17.5833,-71.3333,18.56,86,83,1.42,PE,1697594670
401,lindi,-10.0,39.7167,23.99,82,70,1.55,TZ,1697594670
402,nguigmi,14.2495,13.1092,29.63,25,100,5.39,NE,1697594670
403,al mughraqah,31.4659,34.4121,22.79,67,12,0.58,PS,1697594671
404,troitsko-pechorsk,62.7084,56.1964,4.27,69,51,7.15,RU,1697594671
405,vilyuchinsk,52.9306,158.4028,7.18,96,100,2.53,RU,1697594671
406,klaksvik,62.2266,-6.589,8.51,87,100,8.26,FO,1697594671
407,iturama,-19.7281,-50.1956,30.2,35,48,2.05,BR,1697594463
408,tabou,4.423,-7.3528,24.55,91,86,0.57,CI,1697594671
409,tarko-sale,64.9225,77.785,4.44,88,100,5.36,RU,1697594671
410,sao gabriel da cachoeira,-0.1303,-67.0892,24.29,87,57,0.93,BR,1697594672
411,goz beida,13.95,20.55,27.55,20,38,4.18,TD,1697594672
412,lamar,33.6668,-95.5836,13.95,58,0,3.09,US,1697594672
413,melekeok village,7.4957,134.6367,29.31,79,75,2.57,PW,1697594672
414,palikir - national government center,6.9248,158.1611,30.47,74,75,3.09,FM,1697594672
415,malanje,-9.5402,16.341,18.46,96,82,1.67,AO,1697594672
416,songling,31.1933,120.7176,23.26,55,0,4.56,CN,1697594672
417,happy valley-goose bay,53.3168,-60.3315,5.17,75,75,3.09,CA,1697594566
418,codrington,-38.2667,141.9667,21.74,41,9,3.33,AU,1697594673
419,st. john's,47.5649,-52.7093,4.53,91,75,2.06,CA,1697594422
420,marquette,46.5333,-87.6335,4.32,86,99,0.45,US,1697594673
421,taixing,32.1667,120.0136,23.13,52,0,5.83,CN,1697594673
422,whakatane,-37.9585,176.9854,20.49,84,25,2.68,NZ,1697594671
423,east end,34.5507,-92.341,16.45,79,0,1.38,US,1697594673
424,nadi,-17.8,177.4167,28.0,69,20,6.17,FJ,1697594673
425,palmer,42.1584,-72.3287,12.23,83,75,0.0,US,1697594674
426,lianhe,47.1333,129.2667,11.69,55,100,3.33,CN,1697594674
427,banes,20.9625,-75.7186,25.31,85,82,1.85,CU,1697594674
428,oriximina,-1.7656,-55.8661,25.16,78,53,1.0,BR,1697594674
429,celestun,20.8667,-90.4,24.06,61,69,4.85,MX,1697594674
430,labytnangi,66.6572,66.4183,1.45,100,100,1.81,RU,1697594674
431,daru,-9.0763,143.2092,27.38,78,91,4.1,PG,1697594674
432,tobruk,32.0836,23.9764,21.84,76,0,3.62,LY,1697594674
433,tres arroyos,-38.3739,-60.2798,7.25,59,0,4.29,AR,1697594675
434,salinas,36.6777,-121.6555,21.58,85,0,1.54,US,1697594430
435,tsiombe,-25.3,45.4833,21.72,94,100,2.4,MG,1697594675
436,sao luiz gonzaga,-28.4083,-54.9608,17.72,97,92,3.14,BR,1697594675
437,carolina beach,34.0352,-77.8936,15.01,61,97,0.88,US,1697594644
438,el calafate,-50.3408,-72.2768,7.43,79,99,2.28,AR,1697594675
439,arti,56.4234,58.5328,4.91,66,81,5.77,RU,1697594675
440,port saint john's,-31.6229,29.5448,16.07,85,4,4.19,ZA,1697594675
441,hinton,53.4001,-117.5857,6.31,77,85,2.34,CA,1697594454
442,usogorsk,63.4106,48.6872,3.15,87,100,3.45,RU,1697594676
443,guelendeng,10.9176,15.5501,27.1,51,90,1.76,TD,1697594676
444,sergeyevka,53.88,67.4158,8.45,67,0,4.37,KZ,1697594676
445,severo-yeniseyskiy,60.3725,93.0408,-3.01,98,88,1.34,RU,1697594676
446,igrim,63.1906,64.4162,7.23,84,81,4.02,RU,1697594676
447,alice springs,-23.7,133.8833,26.75,12,0,3.6,AU,1697594459
448,tabalosos,-6.35,-76.6833,19.11,97,64,1.44,PE,1697594676
449,holualoa,19.6228,-155.9522,27.92,69,0,2.06,US,1697594676
450,pariaman,-0.619,100.12,27.03,73,97,0.23,ID,1697594677
451,kuching,1.55,110.3333,28.92,88,40,2.68,MY,1697594677
452,vila velha,-20.3297,-40.2925,24.97,84,0,5.66,BR,1697594547
453,al jawf,29.5,38.75,19.6,39,0,3.47,SA,1697594677
454,ginir,7.1333,40.7,13.5,84,95,2.1,ET,1697594677
455,malita,6.415,125.6117,28.67,76,53,2.75,PH,1697594677
456,kushiro,42.975,144.3747,15.53,58,20,2.06,JP,1697594677
457,beira,-19.8436,34.8389,22.89,87,100,3.8,MZ,1697594678
458,viru,-8.4167,-78.75,22.74,73,100,2.32,PE,1697594678
459,aasiaat,68.7098,-52.8699,-16.01,86,67,2.26,GL,1697594678
460,benguela,-12.5763,13.4055,22.7,82,98,1.88,AO,1697594678
461,santana,-0.0583,-51.1817,29.1,79,75,5.66,BR,1697594678
462,belyy yar,53.6039,91.3903,7.94,81,0,0.0,RU,1697594678
463,kapa'a,22.0752,-159.319,28.99,70,100,2.57,US,1697594678
464,vila franca do campo,37.7167,-25.4333,21.23,99,100,6.84,PT,1697594678
465,abepura,-2.6333,140.5833,32.45,52,20,2.06,ID,1697594679
466,road town,18.4167,-64.6167,29.02,74,40,2.57,VG,1697594560
467,lucaya,26.5333,-78.6667,21.96,64,96,1.03,BS,1697594679
468,mariehamn,60.0973,19.9348,6.01,93,100,3.09,AX,1697594679
469,medford,42.3265,-122.8756,18.21,74,0,0.68,US,1697594409
470,dompu,-8.5356,118.4622,34.26,36,22,2.9,ID,1697594679
471,mana,5.6592,-53.7767,26.51,85,17,3.19,GF,1697594679
472,derzhavinsk,51.1,66.3167,8.27,51,7,4.04,KZ,1697594679
473,tampakan,6.4442,124.9264,32.16,64,27,0.66,PH,1697594680
474,chui,-33.6971,-53.4616,8.9,85,4,3.53,UY,1697594680
475,san antonio de pale,-1.4014,5.6325,25.23,81,90,3.13,GQ,1697594680
476,carbonear,47.7332,-53.2148,4.79,87,100,2.63,CA,1697594680
477,steinbach,50.1667,8.5667,6.46,83,0,5.14,DE,1697594680
478,bikenibeu village,1.3673,173.1241,29.98,79,75,5.14,KI,1697594680
479,yeniseysk,58.4497,92.1703,6.08,70,100,2.24,RU,1697594680
480,azul,-36.777,-59.8585,6.86,59,0,3.62,AR,1697594680
481,staritsa,56.5075,34.9354,3.1,85,100,2.68,RU,1697594680
482,buka,40.8108,69.1986,14.01,31,100,1.0,UZ,1697594681
483,contamana,-7.3333,-75.0167,24.55,81,8,0.6,PE,1697594681
484,vetluga,57.8557,45.781,1.69,96,100,5.9,RU,1697594681
485,agat village,13.3886,144.6585,30.06,87,75,5.14,GU,1697594681
486,newnham,-41.3833,147.1333,19.53,37,3,6.69,AU,1697594681
487,cockburn town,21.4612,-71.1419,29.15,72,50,4.75,TC,1697594681
488,maroua,10.591,14.3159,27.51,52,80,0.95,CM,1697594681
489,maceio,-9.6658,-35.7353,22.69,94,75,1.03,BR,1697594413
490,castillos,-34.1667,-53.8333,7.96,84,2,3.29,UY,1697594682
491,svobodnyy,51.4,128.1333,6.18,64,32,3.13,RU,1697594682
492,as sulayyil,20.4607,45.5779,23.14,19,0,2.82,SA,1697594682
493,cannock,52.6904,-2.0309,9.89,85,100,4.47,GB,1697594682
494,weligama,5.9667,80.4167,24.74,92,100,3.21,LK,1697594682
495,zheleznogorsk-ilimskiy,56.5768,104.1217,1.87,99,91,1.34,RU,1697594682
496,ingenio la esperanza,-24.2255,-64.839,21.27,85,100,1.43,AR,1697594682
497,abyek,36.0667,50.55,7.78,75,16,0.87,IR,1697594683
498,sarangani,5.4033,125.4636,28.5,76,28,4.97,PH,1697594683
499,kisangani,0.5167,25.2,21.31,98,83,0.7,CD,1697594684
500,alo,7.4178,6.7371,22.93,94,98,0.67,NG,1697594684
501,cross lanes,38.4204,-81.7907,11.21,93,100,0.0,US,1697594684
502,plettenberg bay,-34.0527,23.3716,16.56,69,0,2.94,ZA,1697594684
503,karratha,-20.7377,116.8463,34.81,15,0,1.59,AU,1697594684
504,koryukivka,51.7688,32.2481,2.93,72,93,4.69,UA,1697594685
505,petrolina,-9.3986,-40.5008,28.03,34,0,5.14,BR,1697594685
506,pader,3.05,33.2167,19.41,87,53,1.02,UG,1697594685
507,kashin,57.3592,37.6081,2.74,82,99,6.11,RU,1697594685
508,carutapera,-1.195,-46.02,25.29,86,100,3.02,BR,1697594583
509,kolonia town,6.964,158.206,31.06,74,75,3.09,FM,1697594685
510,timaru,-44.4,171.25,16.15,66,97,2.68,NZ,1697594475
511,mount gambier,-37.8333,140.7667,22.63,32,7,2.22,AU,1697594686
512,medowie,-32.7333,151.8667,23.04,53,40,6.69,AU,1697594687
513,chenaran,36.6455,59.1212,11.31,72,0,3.51,IR,1697594687
514,padang,-0.9492,100.3543,27.03,71,100,0.88,ID,1697594428
515,kruisfontein,-34.0033,24.7314,16.18,57,0,3.74,ZA,1697594553
516,llallagua,-18.4167,-66.6333,7.18,73,78,3.9,BO,1697594688
517,chu,43.5983,73.7614,10.95,53,11,3.13,KZ,1697594688
518,kirakira,-10.4544,161.9205,29.58,63,100,2.97,SB,1697594689
519,mora,11.0461,14.1401,26.51,53,54,2.46,CM,1697594689
520,glendive,47.1053,-104.7125,10.79,71,100,6.17,US,1697594689
521,roma,43.2128,-75.4557,10.08,84,100,0.0,US,1697594560
522,benalla,-36.55,145.9833,19.06,59,0,1.76,AU,1697594689
523,al jumum,21.6169,39.6981,26.62,60,28,1.58,SA,1697594689
524,pisco,-13.7,-76.2167,19.03,88,0,6.69,PE,1697594667
525,batumi,41.6416,41.6359,10.99,93,75,4.63,GE,1697594689
526,maych'ew,12.7875,39.5422,12.49,80,64,2.59,ET,1697594690
527,the pas,53.8251,-101.2541,9.01,81,75,1.03,CA,1697594526
528,tocopilla,-22.092,-70.1979,18.2,71,2,0.62,CL,1697594477
529,zherdevka,51.8486,41.4606,2.36,76,2,6.04,RU,1697594690
530,dawei,14.0833,98.2,27.74,80,72,0.34,MM,1697594690
531,bol,13.4586,14.7147,29.29,42,77,5.69,TD,1697594690
532,igarka,67.4667,86.5833,0.12,98,100,8.87,RU,1697594690
533,tofol,5.3248,163.0078,27.88,83,75,4.12,FM,1697594690
534,paka,4.6374,103.4368,26.96,94,20,0.0,MY,1697594690
535,manokwari,-0.8667,134.0833,28.83,69,18,2.75,ID,1697594691
536,lethem,3.3803,-59.7968,28.03,64,82,1.69,GY,1697594691
537,monze,-16.2833,27.4833,19.42,86,5,1.56,ZM,1697594691
538,desaguadero,-16.5656,-69.0417,8.92,68,5,4.38,PE,1697594691
539,kuanda,56.3161,116.0806,0.31,70,41,2.01,RU,1697594691
540,harstad,68.799,16.5293,1.0,86,43,1.79,NO,1697594691
541,prado,-17.3411,-39.2208,22.88,83,18,3.54,BR,1697594691
542,alto barinas,8.5931,-70.2261,23.38,92,42,2.21,VE,1697594692
543,usinsk,65.9939,57.5281,2.26,99,100,7.15,RU,1697594692
544,warrenton,-28.114,24.8475,14.6,56,0,4.89,ZA,1697594692
545,krasnaya polyana,56.242,51.1442,3.68,69,97,7.45,RU,1697594692
546,kargasok,59.0556,80.8572,8.87,92,7,3.13,RU,1697594692
547,santarem,-2.4431,-54.7083,25.07,100,75,1.54,BR,1697594692
548,columbus,39.9612,-82.9988,12.29,79,100,2.06,US,1697594692
549,pachino,36.7186,15.0907,21.89,79,99,3.96,IT,1697594692
550,kavieng,-2.5744,150.7967,28.5,70,47,1.12,PG,1697594416
551,manggar,-2.8833,108.2667,28.6,74,100,4.99,ID,1697594693
552,saint-philippe,-21.3585,55.7679,22.77,77,100,2.32,RE,1697594502
553,visakhapatnam,17.69,83.2093,24.94,94,40,1.03,IN,1697594693
554,ketchikan,55.3422,-131.6461,12.26,94,100,8.23,US,1697594693
555,kidal,18.4411,1.4078,29.99,18,20,3.21,ML,1697594693
556,lady frere,-31.7031,27.2329,12.79,67,0,2.02,ZA,1697594478
557,plastun,44.7561,136.2939,11.72,45,91,0.89,RU,1697594693
558,coatesville,39.9832,-75.8238,11.64,92,0,2.57,US,1697594693
559,saint-paul,-21.0096,55.2707,23.06,93,100,0.89,RE,1697594694
560,mirnyy,62.5353,113.9611,-0.98,92,72,3.13,RU,1697594694
561,fort bragg,35.139,-79.006,16.06,82,100,0.0,US,1697594694
562,mossel bay,-34.1831,22.146,16.76,82,0,3.14,ZA,1697594694
563,eureka,40.8021,-124.1637,15.97,93,69,0.89,US,1697594537
564,el bauga,18.262,33.9081,25.24,22,23,4.25,SD,1697594617
565,turpan,42.9333,89.1667,14.44,24,0,0.48,CN,1697594694
566,estevan,49.1334,-102.9842,14.11,62,100,4.12,CA,1697594418
567,avrameni,48.0167,26.95,4.54,68,6,2.06,RO,1697594694
568,jidong,45.2167,131.0833,14.06,38,100,4.31,CN,1697594694
569,lospalos,-8.5186,127.0025,28.68,48,38,5.1,TL,1697594695
570,taltal,-25.4,-70.4833,16.61,82,97,0.44,CL,1697594695
571,bubaque,11.2833,-15.8333,27.71,77,62,4.51,GW,1697594695
572,marsh harbour,26.5412,-77.0636,24.39,56,60,4.21,BS,1697594695
573,kotlas,61.2611,46.6556,3.36,97,100,4.92,RU,1697594695
574,aragarcas,-15.8975,-52.2508,28.92,32,5,1.67,BR,1697594695
575,naze,28.3667,129.4833,23.51,54,0,2.55,JP,1697594695
576,dryden,49.7833,-92.7503,12.16,62,100,3.6,CA,1697594696
577,malax,62.9423,21.5731,4.37,93,0,1.03,FI,1697594696
578,camiri,-20.05,-63.5167,21.51,81,88,1.32,BO,1697594696
