City_ID,City,Lat,Lng,Max Temp,Humidity,Cloudiness,Wind Speed,Country,Date
0,bethel,41.3712,-73.414,14.2,83,100,2.06,US,1697681134
1,adamstown,-25.066,-130.1015,22.67,75,17,0.5,PN,1697681134
2,port elizabeth,-33.918,25.5701,15.73,95,20,2.57,ZA,1697681001
3,waitangi,-43.9535,-176.5597,13.23,81,99,3.13,NZ,1697681134
4,alofi,-19.0595,-169.9187,25.94,53,40,8.75,NU,1697681134
5,kapuskasing,49.4169,-82.4331,9.05,81,100,2.06,CA,1697681134
6,tazovsky,67.4667,78.7,4.03,96,100,4.7,RU,1697681134
7,port-aux-francais,-49.35,70.2167,1.32,78,95,10.33,TF,1697681134
8,edinburgh of the seven seas,-37.0676,-12.3116,13.82,93,76,9.18,SH,1697681135
9,remire-montjoly,4.9167,-52.2667,24.02,100,0,0.0,GF,1697681135
10,punta arenas,-53.15,-70.9167,12.06,58,0,8.23,CL,1697681135
11,maxixe,-23.8597,35.3472,20.1,96,25,2.92,MZ,1697681135
12,albany,42.6001,-73.9662,11.24,90,79,0.97,US,1697681135
13,yellowknife,62.456,-114.3525,6.9,100,100,4.12,CA,1697681135
14,fale old settlement,-9.3852,-171.2468,28.56,71,16,3.18,TK,1697681135
15,talcahuano,-36.7167,-73.1167,11.82,94,0,0.0,CL,1697681135
16,badger,64.8,-147.5333,-1.68,77,75,2.57,US,1697681136
17,lebu,-37.6167,-73.65,9.73,89,6,1.28,CL,1697681136
18,grytviken,-54.2811,-36.5092,3.35,70,100,4.19,GS,1697681136
19,altamont,42.2068,-121.7372,19.66,50,0,2.06,US,1697681136
20,blackmans bay,-43.0167,147.3167,20.85,56,100,0.45,AU,1697681136
21,talnakh,69.4865,88.3972,4.56,99,100,5.54,RU,1697681136
22,port alfred,-33.5906,26.891,16.21,97,6,0.45,ZA,1697681136
23,north battleford,52.7834,-108.2847,7.05,76,0,2.06,CA,1697681136
24,ust-nera,64.5667,143.2,-12.66,77,100,0.45,RU,1697681137
25,puerto natales,-51.7236,-72.4875,6.56,93,100,1.85,CL,1697681137
26,rach gia,10.0167,105.0833,28.63,76,67,2.65,VN,1697681137
27,mumbwa,-14.9783,27.0619,20.69,64,6,2.48,ZM,1697681137
28,port augusta,-32.5,137.7667,31.07,11,2,3.35,AU,1697681137
29,cassia,-20.5831,-46.9219,22.69,78,42,1.74,BR,1697680962
30,portland,45.5234,-122.6762,18.7,77,0,1.54,US,1697681080
31,qarauyl,48.9451,79.255,8.01,58,0,4.24,KZ,1697681137
32,hamilton,39.1834,-84.5333,13.88,80,0,1.34,US,1697680936
33,sinabang,2.4803,96.3801,26.49,83,100,2.62,ID,1697681138
34,ust-tsilma,65.441,52.1498,3.12,89,100,2.68,RU,1697681138
35,beli,7.8587,10.9719,23.77,87,100,0.47,NG,1697681138
36,oranjemund,-28.55,16.4333,16.2,87,0,1.7,NA,1697681138
37,kapa'a,22.0752,-159.319,30.99,62,0,4.63,US,1697681138
38,sona,45.4388,10.8255,10.75,95,75,1.03,IT,1697681138
39,jamestown,42.097,-79.2353,9.84,75,0,2.24,US,1697681138
40,iqaluit,63.7506,-68.5145,-1.15,92,100,4.12,CA,1697681138
41,ilheus,-14.7889,-39.0494,25.9,83,40,5.66,BR,1697681138
42,castillos,-34.1667,-53.8333,10.82,88,42,1.87,UY,1697681139
43,zhangatas,43.5667,69.75,14.38,43,86,2.06,KZ,1697681139
44,cockburn town,21.4612,-71.1419,29.2,74,37,5.95,TC,1697681139
45,naze,28.3667,129.4833,23.51,51,0,1.27,JP,1697681139
46,langxiang,46.95,128.8833,5.71,61,22,5.28,CN,1697681139
47,ushuaia,-54.8,-68.3,11.81,93,0,4.47,AR,1697681139
48,klyuchi,52.2667,79.1667,7.55,50,32,3.56,RU,1697681139
49,sandnessjoen,66.0217,12.6316,-5.71,64,1,5.69,NO,1697681139
50,ceeldheer,3.8488,47.1806,26.82,80,89,3.32,SO,1697681140
51,borogontsy,62.6683,131.1683,-5.4,62,100,0.45,RU,1697681140
52,nova sintra,14.8667,-24.7167,24.83,71,67,3.13,CV,1697681140
53,ceylanpinar,36.8472,40.05,18.98,58,100,1.84,TR,1697681140
54,dabola,10.75,-11.1167,22.05,94,91,1.07,GN,1697681140
55,longyearbyen,78.2186,15.6401,3.91,75,40,8.75,SJ,1697681140
56,kaduy,59.2,37.15,0.3,94,95,1.23,RU,1697681140
57,margaret river,-33.95,115.0667,16.29,55,94,3.36,AU,1697681140
58,wailua homesteads,22.0669,-159.378,30.24,62,0,4.63,US,1697681141
59,alytus,54.4,24.05,5.1,83,100,1.48,LT,1697681141
60,posto fiscal rolim de moura,-13.0833,-62.2667,28.6,46,60,0.37,BR,1697681141
61,la passe,45.5549,-0.8967,18.13,72,97,9.66,FR,1697681141
62,jodhpur,26.2867,73.03,23.82,45,3,2.8,IN,1697681141
63,usogorsk,63.4106,48.6872,3.15,87,100,4.96,RU,1697681141
64,tura,25.5198,90.2201,23.37,77,0,0.52,IN,1697681141
65,college,64.8569,-147.8028,-1.63,85,61,1.19,US,1697680999
66,cartagena,10.3997,-75.5144,28.79,89,20,2.57,CO,1697681141
67,kas,36.2018,29.6377,19.85,64,2,2.45,TR,1697681142
68,hermanus,-34.4187,19.2345,16.18,85,37,7.9,ZA,1697681142
69,susuman,62.7833,148.1667,-13.34,76,100,0.45,RU,1697681142
70,tongging,2.8969,98.5262,21.85,85,100,0.99,ID,1697681142
71,aykhal,66.0,111.5,-11.07,93,100,2.24,RU,1697681142
72,hawaiian paradise park,19.5933,-154.9731,27.8,74,75,2.57,US,1697681142
73,stanley,54.868,-1.6985,10.4,93,100,9.2,GB,1697681142
74,mount isa,-20.7333,139.5,34.87,8,0,3.6,AU,1697681142
75,olinda,-8.0089,-34.8553,26.85,69,40,4.63,BR,1697681102
76,hami,42.8,93.45,11.45,32,0,0.25,CN,1697681143
77,invercargill,-46.4,168.35,15.57,69,98,8.05,NZ,1697680929
78,nemuro,43.3236,145.575,15.27,82,100,8.69,JP,1697681143
79,dudinka,69.4058,86.1778,4.79,99,100,7.6,RU,1697681143
80,jipijapa,-1.3333,-80.5833,23.72,83,100,2.9,EC,1697681143
81,marsh harbour,26.5412,-77.0636,25.79,56,8,6.67,BS,1697681111
82,new plymouth,-39.0667,174.0833,20.45,83,6,3.13,NZ,1697680987
83,veraval,20.9,70.3667,26.95,51,1,3.31,IN,1697681143
84,kingston,17.997,-76.7936,29.53,85,20,4.63,JM,1697680976
85,kununurra,-15.7667,128.7333,35.99,11,0,4.63,AU,1697681144
86,qaqortoq,60.7167,-46.0333,-1.39,58,52,2.12,GL,1697681144
87,damasak,13.0977,12.4952,28.47,21,95,3.85,NG,1697681144
88,puerto ayora,-0.7393,-90.3518,24.19,96,73,1.79,EC,1697680933
89,iskateley,67.6803,53.1512,1.12,89,100,4.02,RU,1697681144
90,lompoc,34.6391,-120.4579,24.08,94,0,2.06,US,1697680880
91,pimentel,-6.8367,-79.9342,20.16,83,0,8.23,PE,1697681144
92,gilgit,35.9221,74.3087,13.79,53,92,1.25,PK,1697681144
93,isafjordur,66.0755,-23.124,7.06,77,100,4.17,IS,1697681144
94,nuuk,64.1835,-51.7216,-3.66,58,75,11.32,GL,1697681145
95,ribeira grande,38.5167,-28.7,19.32,85,31,2.68,PT,1697681145
96,kailua-kona,19.6406,-155.9956,29.17,79,40,4.63,US,1697681145
97,lethem,3.3803,-59.7968,26.1,80,98,2.92,GY,1697681145
98,ariquemes,-9.9133,-63.0408,27.02,54,82,0.72,BR,1697681054
99,fauske,67.2588,15.3918,-0.68,78,5,2.8,NO,1697681145
100,huntsville,34.7304,-86.5861,15.68,73,0,2.24,US,1697680971
101,richards bay,-28.783,32.0377,18.79,94,71,1.75,ZA,1697681145
102,yulinshi,38.2906,109.7494,12.09,27,100,6.39,CN,1697681145
103,dolores,-36.3132,-57.6792,10.26,58,100,2.57,AR,1697681146
104,surskoye,54.4821,46.7214,4.8,85,100,4.84,RU,1697681146
105,barra de santo antonio,-9.4047,-35.5072,21.6,81,35,3.04,BR,1697681146
106,ilulissat,69.2167,-51.1,-7.99,73,75,2.57,GL,1697681146
107,enewetak,11.3474,162.3373,28.93,76,85,8.81,MH,1697681146
108,horta,38.5333,-28.6333,18.9,85,44,2.68,PT,1697681146
109,avarua,-21.2078,-159.775,24.03,64,75,4.12,CK,1697681146
110,el galpon,-25.3807,-64.6526,17.29,64,100,1.85,AR,1697681146
111,cabo san lucas,22.8909,-109.9124,29.23,83,75,4.12,MX,1697681041
112,polyarnyy,69.1989,33.4478,1.64,63,100,8.63,RU,1697681147
113,queenstown,-31.8976,26.8753,11.51,86,52,1.21,ZA,1697681094
114,north bondi,-33.8824,151.2769,22.68,51,75,4.12,AU,1697681147
115,thompson,55.7435,-97.8558,3.09,81,20,1.03,CA,1697681147
116,tiksi,71.6872,128.8694,-5.7,97,100,2.89,RU,1697681147
117,dunedin,-45.8742,170.5036,20.04,44,96,1.74,NZ,1697680949
118,saint-philippe,-21.3585,55.7679,24.77,88,58,2.45,RE,1697681147
119,shache,38.4167,77.2406,11.22,22,61,1.93,CN,1697681147
120,mollendo,-17.0231,-72.0147,19.52,84,17,1.88,PE,1697681147
121,south hedland,-20.4089,118.5983,39.96,5,0,4.63,AU,1697681148
122,bredasdorp,-34.5322,20.0403,15.12,93,4,5.61,ZA,1697681148
123,aasiaat,68.7098,-52.8699,-14.16,84,89,1.1,GL,1697681148
124,xichang,27.8964,102.2634,17.9,73,3,0.78,CN,1697681148
125,dingli,35.8614,14.3822,22.12,100,75,3.09,MT,1697681148
126,faya-largeau,17.9257,19.1043,24.95,17,80,6.87,TD,1697681148
127,east london,-33.0153,27.9116,18.42,80,41,4.79,ZA,1697681148
128,dryden,49.7833,-92.7503,10.16,100,100,1.54,CA,1697681148
129,ambon,-3.6954,128.1814,29.08,74,20,1.54,ID,1697681149
130,mount gambier,-37.8333,140.7667,25.96,25,72,3.02,AU,1697681145
131,keflavik,64.0049,-22.5624,10.24,81,100,18.01,IS,1697681149
132,i-n-salah,27.1935,2.4607,25.92,18,6,2.21,DZ,1697681149
133,conceicao da barra,-18.5933,-39.7322,24.13,77,60,2.09,BR,1697681149
134,shimoda,34.6667,138.95,25.06,64,99,6.11,JP,1697681149
135,fada,9.5667,8.3,20.66,87,99,0.97,NG,1697681149
136,altai,46.3722,96.2583,2.35,50,0,0.5,MN,1697681149
137,champerico,14.3,-91.9167,27.08,78,16,2.29,GT,1697681150
138,kimbe,-5.5502,150.1429,28.98,78,70,1.41,PG,1697681150
139,mata-utu,-13.2816,-176.1745,27.18,78,95,9.87,WF,1697681150
140,iida,35.5197,137.8207,18.22,76,100,1.79,JP,1697681150
141,lihue,21.9789,-159.3672,30.58,61,0,4.63,US,1697681150
142,chilliwack,49.1747,-121.9443,13.64,100,100,1.34,CA,1697681150
143,gadzhiyevo,69.2551,33.3362,1.52,62,100,8.65,RU,1697681150
144,constantia,44.1833,28.65,7.61,80,39,4.39,RO,1697681151
145,whitehorse,60.7161,-135.0538,8.43,89,75,5.66,CA,1697681151
146,tralee,52.2704,-9.7026,12.0,95,100,2.82,IE,1697681151
147,nar'yan-mar,67.6713,53.087,1.17,89,100,4.02,RU,1697681151
148,chibougamau,49.9168,-74.3659,6.79,76,100,3.09,CA,1697681151
149,saipan,15.1355,145.701,31.39,70,20,7.2,MP,1697681151
150,igarka,67.4667,86.5833,4.7,98,100,6.78,RU,1697681151
151,vorgashor,67.5833,63.95,0.41,80,100,6.26,RU,1697681151
152,gaziantep,37.0594,37.3825,12.96,88,75,0.51,TR,1697680921
153,scottsbluff,41.8666,-103.6672,12.62,44,0,2.57,US,1697681152
154,port lincoln,-34.7333,135.8667,24.93,34,87,0.8,AU,1697681152
155,codrington,-38.2667,141.9667,25.31,30,95,3.83,AU,1697681152
156,tobelo,1.7284,128.0095,29.07,68,19,2.58,ID,1697681152
157,alaghsas,17.0187,8.0168,27.04,18,42,3.53,NE,1697681152
158,maisi,43.0395,41.2621,9.65,94,100,0.68,GE,1697681152
159,west island,-12.1568,96.8225,26.99,78,40,5.66,CC,1697681152
160,olonkinbyen,70.9221,-8.7187,3.67,88,100,10.21,SJ,1697681152
161,papatowai,-46.5619,169.4708,16.88,49,77,6.34,NZ,1697681153
162,nenjiang,49.1833,125.2167,5.77,36,7,7.29,CN,1697681153
163,bilibino,68.0546,166.4372,-17.8,96,76,1.02,RU,1697681153
164,buon ma thuot,12.6667,108.05,27.1,70,74,1.08,VN,1697681153
165,georgetown,5.4112,100.3354,28.96,87,20,3.09,MY,1697681153
166,karratha,-20.7377,116.8463,35.89,15,0,2.82,AU,1697681153
167,udachny,66.4167,112.4,-10.86,85,100,2.06,RU,1697681153
168,perry,37.2506,-83.1999,13.4,73,29,1.67,US,1697680976
169,tsiombe,-25.3,45.4833,20.86,93,100,2.34,MG,1697681154
170,ola,59.5833,151.2833,0.08,33,13,1.71,RU,1697681154
171,mthatha,-31.5889,28.7844,12.2,91,78,0.96,ZA,1697681154
172,kodinsk,58.6881,99.1844,1.36,90,100,1.71,RU,1697681154
173,sidi amrane,33.4989,6.008,20.24,20,80,3.08,DZ,1697681154
174,touros,-5.1989,-35.4608,25.04,76,39,5.25,BR,1697681154
175,svetlogorsk,52.6333,29.7333,4.54,92,58,3.67,BY,1697681154
176,homestead meadows north,31.8496,-106.1729,27.7,15,0,2.57,US,1697681154
177,piti village,13.4626,144.6933,30.49,79,75,6.17,GU,1697681154
178,iwaki,37.05,140.8833,24.45,61,8,0.45,JP,1697681155
179,hobyo,5.3505,48.5268,27.38,77,80,3.6,SO,1697681155
180,pohang,36.0322,129.365,20.5,51,100,2.66,KR,1697681155
181,ta`u,-14.2336,-169.5144,26.1,82,100,9.6,AS,1697681155
182,vernon,50.2581,-119.2691,14.78,89,100,2.57,CA,1697681155
183,newman,37.3138,-121.0208,27.38,58,0,1.87,US,1697681155
184,khorixas,-20.3667,14.9667,16.68,46,0,0.87,NA,1697681155
185,nova vicosa,-17.8919,-39.3719,23.74,79,5,3.02,BR,1697681155
186,flin flon,54.7682,-101.865,6.22,66,100,2.07,CA,1697681155
187,turpan,42.9333,89.1667,15.77,24,0,1.14,CN,1697681156
188,bikenibeu village,1.3673,173.1241,26.98,89,75,11.83,KI,1697681156
189,iquique,-20.2208,-70.1431,18.02,77,20,0.95,CL,1697681036
190,kabalo,-6.05,26.9167,20.92,94,79,1.32,CD,1697681156
191,kargasok,59.0556,80.8572,8.87,91,22,4.02,RU,1697681156
192,nantucket,41.2835,-70.0995,14.45,91,100,2.57,US,1697681112
193,timbiqui,2.7717,-77.6654,25.28,93,100,0.84,CO,1697681156
194,port-vila,-17.7338,168.3219,24.78,88,100,3.09,VU,1697680909
195,khandyga,62.6667,135.6,-1.67,91,100,2.26,RU,1697681156
196,kodiak,57.79,-152.4072,8.73,43,0,11.32,US,1697681157
197,okhotsk,59.3833,143.3,-1.04,94,100,3.08,RU,1697681157
198,weno,7.4515,151.8468,31.97,70,40,4.12,FM,1697681157
199,basoko,1.2391,23.616,20.61,96,100,1.19,CD,1697681157
200,sitka,57.0531,-135.33,11.94,82,100,9.26,US,1697680950
201,belyy yar,53.6039,91.3903,1.94,100,100,0.0,RU,1697681157
202,hammerfest,70.6634,23.6821,-0.75,93,75,4.63,NO,1697681157
203,quarteira,37.0695,-8.1006,21.87,88,40,6.17,PT,1697681157
204,uturoa,-16.7333,-151.4333,26.37,78,76,4.33,PF,1697681158
205,crane,31.3974,-102.3501,23.6,29,0,6.65,US,1697681096
206,tarawa,1.419,172.984,27.05,89,75,11.83,KI,1697681158
207,cuamba,-14.8031,36.5372,20.84,82,100,0.47,MZ,1697681158
208,itaituba,-4.2761,-55.9836,26.05,75,46,0.87,BR,1697681158
209,mili,6.0815,171.735,28.07,74,78,3.45,MH,1697681158
210,oppdal,62.5943,9.6912,-4.89,94,40,4.15,NO,1697681158
211,san patricio,28.017,-97.5169,24.91,65,0,4.03,US,1697681158
212,kiruna,67.8557,20.2251,-6.49,79,100,1.54,SE,1697681159
213,port mathurin,-19.6833,63.4167,23.7,81,97,5.33,MU,1697681159
214,hadibu,12.65,54.0333,27.36,79,2,1.92,YE,1697681159
215,maun,-19.9833,23.4167,20.07,41,1,4.12,BW,1697681005
216,arroyo,41.6096,-4.7969,16.23,80,75,3.09,ES,1697681058
217,atafu village,-8.5421,-172.5159,28.76,72,26,3.51,TK,1697681159
218,sampit,-2.5333,112.95,29.77,70,100,1.31,ID,1697681159
219,zhanibek,49.4167,46.85,3.78,50,17,2.91,KZ,1697681159
220,sezanne,48.7205,3.7234,16.29,92,100,5.4,FR,1697681160
221,padangsidempuan,1.3667,99.2667,25.22,90,85,0.35,ID,1697681160
222,ulsteinvik,62.3432,5.8487,5.17,77,0,2.68,NO,1697681160
223,lianzhou,24.7811,112.3825,22.89,98,100,0.52,CN,1697681160
224,holualoa,19.6228,-155.9522,26.39,80,40,4.63,US,1697681160
225,quellon,-43.1167,-73.6167,8.73,92,93,2.29,CL,1697681160
226,lemvig,56.5486,8.3102,8.44,90,100,11.63,DK,1697681160
227,bamboo flat,11.7,92.7167,27.05,83,75,0.51,IN,1697681160
228,lerwick,60.1545,-1.1494,10.0,80,15,13.96,GB,1697681160
229,amalapuram,16.5833,82.0167,25.85,81,79,1.67,IN,1697681161
230,laguna,38.421,-121.4238,27.25,50,0,0.0,US,1697681118
231,porangatu,-13.4408,-49.1486,27.25,25,15,0.4,BR,1697681161
232,acapulco de juarez,16.8634,-99.8901,26.9,83,100,1.54,MX,1697681161
233,indramayu,-6.3264,108.32,29.38,61,84,3.7,ID,1697681161
234,arraial do cabo,-22.9661,-42.0278,21.98,83,75,4.63,BR,1697681161
235,errachidia,31.9275,-4.4285,19.03,30,0,3.09,MA,1697681161
236,aral,40.5156,81.2636,12.78,20,100,3.37,CN,1697681161
237,tapa,59.2606,25.9586,1.03,78,100,2.45,EE,1697681162
238,afaahiti,-17.75,-149.2833,25.59,80,81,7.44,PF,1697681162
239,cuatro cienegas de carranza,26.9833,-102.0833,24.41,31,29,1.66,MX,1697681162
240,beerwah,-26.85,152.9667,23.86,42,74,3.84,AU,1697681162
241,saarijarvi,62.7049,25.254,-0.59,94,91,3.24,FI,1697681162
242,northam,51.0333,-4.2167,17.59,98,56,5.59,GB,1697681162
243,priozersk,61.0393,30.1291,3.33,87,100,4.29,RU,1697681162
244,new norfolk,-42.7826,147.0587,21.51,26,100,1.72,AU,1697681162
245,hell-ville,-13.4,48.2667,25.96,75,45,1.44,MG,1697681163
246,olonets,60.9847,32.9698,2.15,72,98,2.26,RU,1697681163
247,knoxville,35.9606,-83.9207,14.11,79,0,0.0,US,1697681014
248,lubango,-14.9172,13.4925,12.92,94,23,1.54,AO,1697681105
249,wau,7.7029,27.9953,22.85,85,66,1.07,SS,1697681163
250,mountain home,43.133,-115.6912,15.79,60,0,0.89,US,1697680977
251,taulaga,-11.0553,-171.0883,27.68,79,25,6.08,AS,1697681163
252,vadso,70.0744,29.7487,0.49,86,86,7.72,NO,1697681163
253,aleysk,52.4926,82.7822,7.66,63,0,3.75,RU,1697681163
254,fort dodge,42.4975,-94.168,12.23,94,100,2.57,US,1697681164
255,essaouira,31.5125,-9.77,18.72,77,99,1.03,MA,1697681164
256,st. john's,47.5649,-52.7093,7.86,89,100,4.12,CA,1697680923
257,antsiranana,-12.2787,49.2917,23.96,88,59,5.43,MG,1697681164
258,paphos,34.7667,32.4167,23.88,73,75,9.26,CY,1697681164
259,sao joao da barra,-21.6403,-41.0511,22.31,85,100,5.52,BR,1697681164
260,lenger,42.183,69.8839,11.69,48,25,2.13,KZ,1697681164
261,rikaze,29.25,88.8833,3.82,45,2,1.32,CN,1697681164
262,sisimiut,66.9395,-53.6735,-4.96,79,99,6.13,GL,1697681164
263,minas de marcona,-15.2119,-75.1103,16.7,79,80,2.88,PE,1697681165
264,sheridan,44.8333,-106.9173,10.94,59,0,1.54,US,1697681165
265,kitimat,54.0524,-128.6534,12.21,62,100,4.02,CA,1697680920
266,mar del plata,-38.0023,-57.5575,12.19,67,0,2.06,AR,1697681165
267,sarangani,5.4033,125.4636,28.06,75,39,3.45,PH,1697681165
268,sola,-13.8833,167.55,25.87,80,92,3.87,VU,1697681165
269,porto torres,40.835,8.3972,23.1,87,9,8.22,IT,1697681165
270,nabire,-3.3667,135.4833,30.5,64,63,2.27,ID,1697681165
271,praia da vitoria,38.7333,-27.0667,19.31,77,40,10.4,PT,1697681166
272,golyshmanovo,56.3979,68.3728,3.05,74,4,5.2,RU,1697681166
273,digras,20.1167,77.7167,24.51,67,2,1.46,IN,1697681166
274,ancud,-41.8697,-73.8203,9.96,83,100,4.01,CL,1697681166
275,dubnany,48.9169,17.09,10.26,71,26,6.89,CZ,1697681166
276,anadyr,64.75,177.4833,-5.72,67,0,7.0,RU,1697681166
277,tochio-honcho,37.4667,139.0,24.19,53,95,1.8,JP,1697681166
278,puerto santa,-8.9906,-78.6456,19.09,89,52,4.22,PE,1697681167
279,madara,11.7798,10.4479,27.34,22,100,3.84,NG,1697681167
280,brak,27.5496,14.2714,23.39,21,3,2.19,LY,1697681167
281,changyon,38.2508,125.0961,18.44,56,98,5.46,KP,1697681167
282,timmins,48.4669,-81.3331,7.9,76,75,3.09,CA,1697681016
283,haiku-pauwela,20.9219,-156.3051,28.01,63,40,9.77,US,1697681167
284,pisco,-13.7,-76.2167,19.03,88,100,2.57,PE,1697681167
285,san mariano,7.5,126.0,28.37,78,100,1.64,PH,1697681167
286,manggar,-2.8833,108.2667,28.31,74,99,3.29,ID,1697681167
287,ha giang,22.8333,104.9833,28.17,63,87,0.79,VN,1697681168
288,ayabaca,-4.6398,-79.7149,11.88,76,86,0.92,PE,1697681168
289,al mutayrifi,25.4788,49.5576,24.19,68,0,3.56,SA,1697681168
290,tianshui,34.5439,105.6897,10.1,60,30,4.43,CN,1697681168
291,laascaanood,8.4774,47.3597,22.85,84,17,4.29,SO,1697681168
292,san carlos de bariloche,-41.1456,-71.3082,11.86,71,0,7.72,AR,1697680953
293,withernsea,53.7311,0.0335,15.14,95,100,9.56,GB,1697681168
294,ngereklmadel,7.4883,134.4856,31.05,66,75,3.09,PW,1697681168
295,loango,-4.6719,11.8312,24.54,90,100,0.62,CG,1697681169
296,tando adam,25.7637,68.661,26.14,44,0,3.09,PK,1697681169
297,vila franca do campo,37.7167,-25.4333,21.23,90,87,6.92,PT,1697681169
298,petropavlovsk-kamchatsky,53.0452,158.6483,12.33,88,0,7.0,RU,1697681169
299,masterton,-40.9597,175.6575,17.16,36,9,1.98,NZ,1697681169
300,antofagasta,-23.65,-70.4,16.6,68,82,3.64,CL,1697681164
301,chonchi,-42.6128,-73.8092,9.56,95,59,1.42,CL,1697680926
302,saudarkrokur,65.7461,-19.6394,3.98,82,46,4.02,IS,1697681169
303,saldanha,-33.0117,17.9442,15.64,79,35,3.42,ZA,1697681169
304,leua,48.2156,18.6071,10.28,54,100,6.71,SK,1697681170
305,prince rupert,54.3161,-130.3201,13.05,84,100,14.4,CA,1697680903
306,robertson,36.5167,-86.8667,16.29,72,100,2.57,US,1697681170
307,orcopampa,-15.2661,-72.3417,8.44,93,100,2.38,PE,1697681170
308,shingu,33.7333,135.9833,23.32,62,80,2.39,JP,1697681170
309,verkhnevilyuysk,63.4453,120.3167,-6.14,81,39,3.58,RU,1697681170
310,chul'man,56.8479,124.9104,-5.36,94,92,1.79,RU,1697681170
311,utrik,11.2278,169.8474,28.32,71,86,7.88,MH,1697681170
312,kruisfontein,-34.0033,24.7314,13.81,94,27,1.41,ZA,1697680953
313,belmonte,-15.8631,-38.8828,23.23,77,74,3.38,BR,1697681171
314,port hedland,-20.3167,118.5667,40.03,5,0,4.63,AU,1697681171
315,daru,-9.0763,143.2092,27.23,77,100,5.47,PG,1697681171
316,engenheiro beltrao,-23.7972,-52.2692,23.61,91,99,3.51,BR,1697681016
317,nizhneudinsk,54.9076,99.0276,3.9,96,15,2.68,RU,1697681171
318,ivins,37.1686,-113.6794,26.62,26,0,2.24,US,1697681171
319,broken hill,-31.95,141.4333,27.03,16,0,1.13,AU,1697681171
320,fortuna,40.5982,-124.1573,14.4,96,100,0.0,US,1697681171
321,carnarvon,-24.8667,113.6333,27.53,44,100,7.43,AU,1697681171
322,zeeland,51.4167,3.75,16.15,91,100,9.77,NL,1697681129
323,the pas,53.8251,-101.2541,6.01,93,100,3.09,CA,1697680939
324,tamano,34.4833,133.95,24.22,66,1,1.15,JP,1697681172
325,luganville,-15.5333,167.1667,27.92,74,99,1.93,VU,1697681172
326,kirando,-7.4167,30.6,24.81,72,42,4.69,TZ,1697681172
327,namibe,-15.1961,12.1522,16.59,89,42,3.08,AO,1697681172
328,huarmey,-10.0681,-78.1522,20.23,86,96,3.97,PE,1697681173
329,zeya,53.75,127.2667,1.94,70,100,6.1,RU,1697681173
330,dalandzadgad,43.5708,104.425,7.68,19,6,1.09,MN,1697681173
331,banda aceh,5.5577,95.3222,26.86,79,100,0.65,ID,1697681173
332,buka,40.8108,69.1986,15.81,52,77,0.48,UZ,1697681173
333,tommot,58.9564,126.2925,-2.87,79,100,4.07,RU,1697681173
334,labrador city,52.9463,-66.9114,1.95,80,0,3.09,CA,1697681173
335,isangel,-19.55,169.2667,24.06,88,100,3.09,VU,1697681173
336,ketchikan,55.3422,-131.6461,12.26,94,100,7.2,US,1697681174
337,san antonio de pale,-1.4014,5.6325,26.03,86,100,5.97,GQ,1697681174
338,puerto baquerizo moreno,-0.9,-89.6,23.7,88,100,4.23,EC,1697681174
339,lauro de freitas,-12.8944,-38.3272,26.01,65,40,3.6,BR,1697681174
340,asau,46.4333,26.4,-1.49,63,49,2.46,RO,1697681174
341,bouca,6.5105,18.2733,20.76,95,81,1.12,CF,1697681174
342,thinadhoo,0.5333,72.9333,27.06,78,72,3.81,MV,1697681174
343,satara,17.6833,73.9833,22.84,69,7,1.42,IN,1697681174
344,luderitz,-26.6481,15.1594,14.63,90,28,2.66,NA,1697681175
345,fayroz koh,34.5195,65.2509,5.39,60,0,0.95,AF,1697680937
346,koungou,-12.7336,45.2042,24.84,88,40,0.0,YT,1697681175
347,zyryanskoye,56.8306,86.6258,6.91,83,47,2.64,RU,1697681175
348,katsuren-haebaru,26.3369,127.8719,28.21,48,20,1.54,JP,1697681175
349,calama,-22.4667,-68.9333,19.27,22,0,6.17,CL,1697681175
350,howrah,22.5892,88.3103,27.0,78,0,3.09,IN,1697681175
351,atambua,-9.1061,124.8925,31.33,35,50,0.41,ID,1697681175
352,fereydun kenar,36.6864,52.5225,18.35,81,3,1.63,IR,1697681175
353,al ghayzah,16.2079,52.176,25.91,80,13,1.58,YE,1697681176
354,constitucion,-35.3333,-72.4167,9.95,84,0,3.52,CL,1697680925
355,moroto,2.5345,34.6666,19.6,85,100,1.56,UG,1697681176
356,waddan,29.1614,16.139,22.75,24,0,3.33,LY,1697681176
357,noshiro,40.2039,140.0242,13.46,76,100,7.8,JP,1697681176
358,togur,58.3631,82.8265,8.97,91,41,3.13,RU,1697681176
359,puerto rico,-26.796,-55.024,20.17,99,29,1.97,AR,1697681176
360,soto la marina,23.7667,-98.2167,20.27,72,54,2.13,MX,1697681176
361,tam ky,15.5667,108.4833,28.17,77,100,0.69,VN,1697681177
362,tangalle,6.024,80.7911,24.09,93,100,1.89,LK,1697681177
363,agadez,19.75,10.25,24.77,18,0,2.85,NE,1697681177
364,haimen,23.1935,116.6142,25.94,85,100,4.02,CN,1697681177
365,mascote,-15.5631,-39.3025,19.12,97,38,0.7,BR,1697680962
366,gaspe,48.8334,-64.4819,8.95,93,0,0.0,CA,1697681177
367,tofol,5.3248,163.0078,28.17,75,100,4.9,FM,1697681177
368,greymouth,-42.4667,171.2,12.99,68,55,3.26,NZ,1697681177
369,saint-pierre,-21.3393,55.4781,24.82,78,100,0.0,RE,1697681177
370,mogocha,53.7333,119.7667,-0.14,52,71,2.68,RU,1697681178
371,arteche,12.2645,125.4048,30.12,64,86,2.7,PH,1697681178
372,dabeiba,7.0017,-76.2672,24.26,99,100,0.43,CO,1697681178
373,micheweni,-4.9667,39.8333,25.48,80,77,2.76,TZ,1697681178
374,santa cruz,-17.8,-63.1667,27.7,65,6,2.06,BO,1697681178
375,okha,53.5739,142.9478,7.04,96,100,8.34,RU,1697681178
376,garachico,28.7781,-17.7646,21.06,68,0,2.57,ES,1697681178
377,strathalbyn,-35.2667,138.9,30.96,26,9,2.93,AU,1697681178
378,kudahuvadhoo,2.6708,72.8944,27.71,74,91,4.23,MV,1697681179
379,neryungri,56.6709,124.6491,-5.42,82,85,6.41,RU,1697681179
380,jingdezhen,29.2947,117.2079,20.31,77,100,0.84,CN,1697681179
381,neelankarai,12.9455,80.2575,27.24,89,40,1.54,IN,1697681179
382,pierre,44.3683,-100.351,12.14,77,89,0.89,US,1697680895
383,la sarre,48.8002,-79.1996,7.43,78,100,3.95,CA,1697681179
384,pulandian,39.3953,121.9669,17.13,27,100,5.05,CN,1697681179
385,necochea,-38.5473,-58.7368,11.72,57,100,4.38,AR,1697680937
386,taoudenni,22.6783,-3.9836,30.65,14,51,2.37,ML,1697681180
387,bac lieu,9.285,105.7244,29.03,75,43,3.29,VN,1697681180
388,nago,26.5881,127.9761,28.24,52,0,2.96,JP,1697681180
389,olavarria,-36.8927,-60.3225,12.6,35,100,3.41,AR,1697681180
390,xianju,28.85,120.7333,25.82,57,35,0.63,CN,1697681180
391,maturin,9.75,-63.1767,26.25,79,61,2.47,VE,1697681180
392,lata,40.1629,-8.3327,18.37,95,99,3.18,PT,1697681180
393,salinopolis,-0.6136,-47.3561,27.1,79,32,6.15,BR,1697681150
394,wewak,-3.5534,143.6268,28.89,73,26,2.31,PG,1697681181
395,arno,60.1167,18.6333,4.32,67,57,5.82,SE,1697681181
396,sinop,41.7711,34.8709,9.61,96,100,1.18,TR,1697680923
397,springdale,36.1867,-94.1288,20.06,60,75,3.6,US,1697681181
398,arar,30.9753,41.0381,17.01,39,0,2.57,SA,1697681181
399,kuanda,56.3161,116.0806,0.88,52,92,5.04,RU,1697681181
400,khash,28.2211,61.2158,17.49,69,0,1.77,IR,1697681181
401,kayangel,8.0823,134.7173,28.46,72,62,1.28,PW,1697681181
402,enriquillo,17.9,-71.2333,26.86,82,12,3.0,DO,1697681182
403,ataq,14.5377,46.8319,19.19,69,1,2.65,YE,1697681182
404,rawson,-43.3002,-65.1023,21.44,20,100,13.02,AR,1697681182
405,bykovo,55.6361,38.0803,4.75,98,75,8.05,RU,1697681182
406,haapsalu,58.9431,23.5414,2.23,81,99,4.97,EE,1697681182
407,huilong,31.8111,121.655,22.85,65,2,0.95,CN,1697681182
408,malango,-2.9627,119.9001,28.25,56,82,1.92,ID,1697681182
409,kirensk,57.7853,108.1119,0.57,95,100,0.89,RU,1697681182
410,tomah,43.9786,-90.504,12.97,87,100,0.0,US,1697681183
411,atasu,48.6814,71.6433,6.51,59,84,1.83,KZ,1697681183
412,libertad,8.9442,125.5019,30.64,63,98,0.94,PH,1697681183
413,erdenet,49.0333,104.0833,2.9,52,5,1.13,MN,1697681183
414,linxia chengguanzhen,35.6003,103.2064,6.68,73,100,0.28,CN,1697681183
415,jammalamadugu,14.8333,78.4,25.45,69,18,1.89,IN,1697681183
416,bihpuriagaon,27.0333,93.9,25.08,73,0,1.26,IN,1697681183
417,serenje,-13.2325,30.2352,17.11,91,76,2.65,ZM,1697681183
418,badarpur,24.9,92.6,24.38,72,0,0.95,IN,1697680884
419,nikolayevsk-on-amure,53.1406,140.73,4.84,90,100,2.15,RU,1697681184
420,crookston,47.7741,-96.6081,13.06,88,100,2.06,US,1697681184
421,slyudyanka,51.6594,103.7061,5.34,80,95,0.57,RU,1697681184
422,daudnagar,25.0333,84.4,22.76,76,0,1.61,IN,1697681184
423,clarksville,36.5298,-87.3595,14.41,81,0,1.54,US,1697680975
424,ciudad bolivar,8.1222,-63.5497,27.21,73,75,2.15,VE,1697681184
425,barabinsk,55.3571,78.357,6.47,63,98,3.92,RU,1697681184
426,cidreira,-30.1811,-50.2056,16.97,75,92,5.03,BR,1697681185
427,howard springs,-12.497,131.047,33.95,24,4,1.72,AU,1697681185
428,dhidhdhoo,6.8833,73.1,27.48,78,45,3.47,MV,1697681185
429,tirat karmel,32.7617,34.9719,20.93,68,18,3.1,IL,1697681185
430,escarcega,18.6089,-90.7454,21.2,73,56,1.36,MX,1697681185
431,san sebastian,43.3128,-1.975,23.91,48,0,7.2,ES,1697681185
432,kourou,5.1552,-52.6478,24.03,85,100,4.43,GF,1697681185
433,san salvador de jujuy,-24.1946,-65.2971,16.74,88,100,1.14,AR,1697681175
434,urk,52.6625,5.6014,11.09,95,100,8.17,NL,1697681186
435,tamanrasset,22.785,5.5228,17.95,24,0,0.51,DZ,1697681186
436,hasaki,35.7333,140.8333,25.16,59,86,7.57,JP,1697681186
437,mil'kovo,55.6078,37.7956,4.63,97,100,3.04,RU,1697681186
438,semdinli,37.3051,44.5742,12.02,80,100,2.31,TR,1697681186
439,kulhudhuffushi,6.6221,73.07,27.52,76,59,3.58,MV,1697681186
440,flying fish cove,-10.4217,105.6791,27.82,74,75,6.17,CX,1697681186
441,ghanzi,-21.5667,21.7833,18.58,36,5,5.14,BW,1697681186
442,miracema do tocantins,-9.5618,-48.3967,27.63,27,26,0.83,BR,1697681187
443,guatrache,-37.6678,-63.5302,9.12,81,100,5.68,AR,1697681187
444,rongelap,11.1635,166.8941,27.94,77,90,7.24,MH,1697681187
445,kirkland lake,48.1446,-80.0377,8.16,81,99,2.06,CA,1697681187
446,la foa,-21.7108,165.8276,23.59,51,2,4.15,NC,1697681187
447,lionel town,17.8101,-77.2406,29.94,83,100,2.26,JM,1697681187
448,toktogul,41.8708,72.9402,13.61,44,85,0.74,KG,1697681187
449,tucumcari,35.1717,-103.725,18.3,47,0,3.6,US,1697681188
450,singrauli,24.1997,82.6753,22.34,72,8,0.95,IN,1697681188
451,geraldton,-28.7667,114.6,23.23,56,100,4.12,AU,1697681188
452,rabaul,-4.1967,152.1721,27.99,74,18,1.21,PG,1697681188
453,karagandy,49.8019,73.1021,-2.03,63,58,2.96,KZ,1697681188
454,xinmin,41.9908,122.8253,13.43,28,0,4.85,CN,1697681188
455,broughton,52.3667,-0.7667,14.38,94,100,6.26,GB,1697681188
456,la'ie,21.6477,-157.9253,30.98,67,77,3.13,US,1697681188
457,gizo,-8.103,156.8419,28.81,72,63,3.9,SB,1697681188
458,kotlas,61.2611,46.6556,3.36,97,100,4.92,RU,1697681189
459,gafargaon,24.4333,90.5667,24.85,78,0,1.95,BD,1697681189
460,alice springs,-23.7,133.8833,30.75,8,0,5.66,AU,1697681141
461,vizinga,61.0749,50.1031,1.73,96,100,5.14,RU,1697681189
462,villa gesell,-37.2639,-56.973,10.32,62,100,4.03,AR,1697681189
463,santa terezinha,-29.9002,-50.0904,16.55,78,77,3.55,BR,1697681189
464,tasqala,51.1167,50.3167,2.83,60,8,3.89,KZ,1697681189
465,maryborough,-25.5333,152.7,26.26,34,7,5.22,AU,1697681189
466,mhamid,29.82,-5.72,24.98,26,19,2.71,MA,1697681189
467,nouadhibou,20.931,-17.0347,22.99,88,0,5.66,MR,1697681190
468,tual,-5.6667,132.75,26.74,82,20,6.1,ID,1697681190
469,torghay,49.6339,63.4981,4.09,54,25,1.99,KZ,1697681190
470,tolanaro,-25.0319,46.9987,24.04,94,75,3.09,MG,1697681190
471,menongue,-14.6585,17.691,17.52,29,49,0.38,AO,1697681190
472,kupang,-10.1667,123.5833,32.32,45,20,3.09,ID,1697680932
473,waajid,3.8096,43.2463,23.82,87,94,4.76,SO,1697681190
474,jwaneng,-24.6004,24.7303,18.02,39,0,4.08,BW,1697681190
475,panjab,34.388,67.0233,2.59,69,0,1.12,AF,1697681190
476,tazacorte,28.629,-17.9293,22.54,81,0,2.68,ES,1697681191
477,santiago del estero,-27.7951,-64.2615,12.04,83,100,4.92,AR,1697681191
478,puerto el triunfo,13.2833,-88.55,24.05,88,100,1.48,SV,1697681191
479,darwin,-12.4611,130.8418,33.99,38,0,2.57,AU,1697681059
480,joshimath,30.5667,79.5667,12.63,39,0,0.67,IN,1697681191
481,happy valley-goose bay,53.3168,-60.3315,2.17,80,20,1.54,CA,1697681191
482,san nicolas de bari,22.7844,-81.9133,22.82,72,16,3.8,CU,1697681191
483,juan griego,11.0817,-63.9655,27.26,86,38,4.26,VE,1697681191
484,nashik,19.9833,73.8,22.66,67,3,1.93,IN,1697681192
485,xiva,41.3783,60.3639,5.99,35,100,3.95,UZ,1697681192
486,khanty-mansiysk,61.0042,69.0019,1.06,69,0,4.02,RU,1697681192
487,lazaro cardenas,17.9583,-102.2,23.52,94,100,3.47,MX,1697681192
488,manokwari,-0.8667,134.0833,28.66,71,5,2.92,ID,1697681192
489,road town,18.4167,-64.6167,29.02,74,40,3.09,VG,1697681192
490,ovelgonne,53.3419,8.4218,8.12,97,100,4.92,DE,1697681192
491,nizhniy kuranakh,58.8353,125.4869,-2.38,87,100,4.11,RU,1697681192
492,franceville,-1.6333,13.5836,20.81,99,100,0.37,GA,1697681192
493,arkhangel'sk,64.5401,40.5433,3.96,78,100,4.39,RU,1697681193
494,isabela,6.7085,121.9711,28.03,65,100,1.3,PH,1697681193
495,kolonia town,6.964,158.206,31.06,74,75,2.57,FM,1697681193
496,bairnsdale,-37.8333,147.6167,24.47,53,0,1.34,AU,1697681193
497,atar,20.5169,-13.0499,29.63,19,0,1.57,MR,1697681193
498,vorkuta,67.5,64.0,0.64,79,100,6.39,RU,1697681193
499,bela,25.9333,81.9833,23.24,57,0,1.25,IN,1697681194
500,la ronge,55.1001,-105.2842,10.14,81,100,3.6,CA,1697681194
501,colonia,50.9333,6.95,14.21,90,75,4.63,DE,1697681194
502,sault ste. marie,46.5168,-84.3333,11.16,85,0,3.6,CA,1697681194
503,kadirli,37.3739,36.0961,17.61,87,60,2.14,TR,1697681194
504,cimin,39.7101,39.7021,8.04,93,75,1.54,TR,1697681194
505,sarmiento,-45.5882,-69.07,18.01,20,4,11.89,AR,1697681194
506,boa vista,2.8197,-60.6733,27.99,69,20,1.54,BR,1697681194
507,barah,13.7,30.3667,26.81,20,51,6.89,SD,1697681194
508,amos,48.5669,-78.1162,8.12,76,100,3.25,CA,1697681195
509,zheleznogorsk,52.331,35.3711,5.03,82,97,6.71,RU,1697681195
510,rabo de peixe,37.8,-25.5833,20.73,78,40,5.66,PT,1697681195
511,tchintabaraden,15.8969,5.7985,28.65,16,70,4.47,NE,1697681195
512,taranagar,28.6709,75.0351,23.44,42,0,1.14,IN,1697681195
513,tucuma,-0.1833,-50.05,26.07,88,100,4.05,BR,1697681195
514,ciudad lazaro cardenas,17.9583,-102.2,23.52,94,100,3.47,MX,1697681195
515,sortavala,61.7053,30.6918,2.23,87,100,3.13,RU,1697681195
516,neiafu,-18.65,-173.9833,24.1,62,7,7.78,TO,1697681195
517,tughyl,47.7252,84.2063,10.25,48,0,2.44,KZ,1697681196
518,palikir - national government center,6.9248,158.1611,30.47,74,75,2.57,FM,1697681196
519,galesong,-5.3166,119.3661,32.01,61,97,0.38,ID,1697681196
520,petrovsk-zabaykal'skiy,51.273,108.843,0.72,71,65,3.58,RU,1697681196
521,asosa,10.0667,34.5333,15.79,92,96,1.76,ET,1697681196
522,baringo,0.4667,35.9667,21.74,70,95,1.54,KE,1697680935
523,bontang,0.1333,117.5,28.99,70,93,1.85,ID,1697681196
524,bonthe,7.5264,-12.505,25.11,88,82,0.71,SL,1697681196
525,save,8.0425,2.486,23.53,95,100,1.25,BJ,1697681196
526,palmer,42.1584,-72.3287,12.7,83,75,0.0,US,1697681197
527,jiangkou,25.4872,119.1986,26.41,64,100,1.56,CN,1697681197
528,fort st. john,56.2499,-120.8529,12.94,54,20,6.17,CA,1697681197
529,scottburgh,-30.2867,30.7532,18.27,85,52,3.73,ZA,1697681197
530,orapa,-21.2833,25.3667,18.77,49,0,5.69,BW,1697681197
531,luena,-11.7833,19.9167,17.42,77,45,1.08,AO,1697681197
532,porto novo,6.4965,2.6036,27.9,87,84,2.23,BJ,1697680984
533,talara,-4.5772,-81.2719,21.42,83,0,6.69,PE,1697681197
534,mugia,43.1041,-9.2179,18.98,86,99,11.51,ES,1697681198
535,mitu,1.1983,-70.1733,23.23,93,15,0.93,CO,1697681198
536,akjoujt,19.6969,-14.4164,28.56,34,22,3.19,MR,1697681198
537,santana,-0.0583,-51.1817,30.1,74,40,4.12,BR,1697680925
538,poronaysk,49.2167,143.1167,11.27,90,100,5.68,RU,1697681198
539,rio verde,21.9333,-99.9833,16.24,71,81,2.8,MX,1697681198
540,yeniseysk,58.4497,92.1703,6.08,70,91,2.24,RU,1697681198
541,tateyama,34.9833,139.8667,23.21,62,98,8.28,JP,1697681198
542,kristiansund,63.1115,7.732,4.36,52,0,5.14,NO,1697681199
543,tacuarembo,-31.7333,-55.9833,12.38,77,88,5.7,UY,1697681199
544,fort bragg,35.139,-79.006,12.67,91,0,0.0,US,1697681199
545,black river,18.0264,-77.8487,26.84,84,100,2.29,JM,1697680978
546,metlili chaamba,32.2667,3.6333,22.52,21,0,0.0,DZ,1697681199
547,bermejo,-32.8833,-68.8,13.95,58,0,1.54,AR,1697681199
548,guerrero negro,27.9769,-114.0611,21.1,76,7,5.68,MX,1697681199
549,taltal,-25.4,-70.4833,17.88,66,1,2.22,CL,1697681199
550,vrangel',42.7297,133.0839,12.74,53,100,4.24,RU,1697681200
551,kerikeri,-35.2268,173.9474,17.11,82,100,3.88,NZ,1697680940
552,gamba,-2.65,10.0,23.3,94,100,2.64,GA,1697681200
553,manhattan,40.7834,-73.9662,15.79,75,100,3.58,US,1697681039
554,bayanhongor,46.7167,100.1167,1.53,50,0,0.38,MN,1697681200
555,ravar,31.2656,56.8055,18.48,28,8,1.79,IR,1697681200
556,golfito,8.639,-83.166,25.03,92,100,0.78,CR,1697681200
557,kuqa,41.7278,82.9364,12.25,37,93,1.22,CN,1697681201
558,kendari,-3.945,122.4989,31.55,52,23,2.51,ID,1697681201
559,santanyi,39.3546,3.1291,23.71,73,100,7.65,ES,1697681011
560,altinyayla,39.2725,36.751,8.66,81,95,2.98,TR,1697681201
561,semporna,4.4818,118.6112,28.1,78,31,1.12,MY,1697681201
562,kamiiso,41.8167,140.65,16.74,85,100,6.93,JP,1697681201
563,zwedru,6.0667,-8.1281,22.47,99,100,0.62,LR,1697681201
564,uyuni,-20.4597,-66.825,11.69,55,94,7.36,BO,1697681201
565,mount pearl,47.5166,-52.7813,7.4,89,3,0.45,CA,1697681201
566,amga,60.8953,131.9608,-3.34,52,100,3.13,RU,1697681202
567,lewistown,40.5992,-77.5714,10.65,93,75,0.0,US,1697681202
568,hamirpur,25.95,80.15,24.27,49,0,1.15,IN,1697681202
569,vilyuchinsk,52.9306,158.4028,13.15,66,30,5.56,RU,1697681202
570,rio grande,-32.035,-52.0986,14.97,72,7,6.22,BR,1697681202
571,kamloops,50.6665,-120.3192,14.55,81,75,8.23,CA,1697680972
572,jerico,5.7921,-75.786,16.7,98,100,1.02,CO,1697681202
573,novyy urgal,51.0736,132.5642,3.33,65,98,3.55,RU,1697681202
574,siwa oasis,29.2041,25.5195,22.39,37,1,2.22,EG,1697681203
575,jalpaiguri,26.5167,88.7333,22.61,72,0,1.58,IN,1697681203
576,ledec nad sazavou,49.6952,15.2777,7.77,70,100,4.88,CZ,1697681203
577,wuda,39.4994,106.7117,10.39,53,100,3.96,CN,1697681203
578,ad dawadimi,24.5077,44.3924,20.64,17,0,7.48,SA,1697681203
579,ambovombe,-25.1667,46.0833,21.61,88,64,3.44,MG,1697681203
580,anna regina,7.2644,-58.5077,27.86,78,59,3.33,GY,1697681203
581,bali chak,22.3667,87.55,25.06,76,0,2.77,IN,1697681203
582,coquimbo,-29.9533,-71.3436,14.16,72,83,1.75,CL,1697681203
583,bastrop,32.7562,-91.8724,17.82,63,0,0.0,US,1697681204
584,morehead city,34.7229,-76.726,19.0,85,0,0.0,US,1697681204
585,broome,42.2506,-75.833,10.21,85,100,1.54,US,1697681204
586,kharkhorin,47.1975,102.8238,3.93,49,0,1.46,MN,1697681204
